[{"id":1, "store_name":"\ud770\ub3cc\uce58\uacfc\uc758\uc6d0", "address":"\uad11\uc8fc\uad11\uc5ed\uc2dc \uad11\uc0b0\uad6c \uc218\ub4f1\ub85c 264 2\uce35 (\uc2e0\uac00\ub3d9)", "phone":"062-961-2828", "Examination_item":"\uad6c\uac15\uac80\uc9c4", "lat":126.837819, "lon":35.184934},
 {"id":2, "store_name":"\uad11\uc8fc\ub3d9\ub9bc\ubcd1\uc6d0", "address":"\uad11\uc8fc\uad11\uc5ed\uc2dc \uc11c\uad6c \ud558\ub0a8\ub300\ub85c 686 (\ub3d9\ucc9c\ub3d9, \ub3d9\ub9bc\ubcd1\uc6d0)", "phone":"062-510-6028", "Examination_item":"\uc77c\ubc18,\uc554\uac80\uc9c4,\uc601\uc720\uc544\uac80\uc9c4", "lat":126.867671, "lon":35.171488},
 {"id":3, "store_name":"\uad11\uc8fc\ud55c\uad6d\ubcd1\uc6d0", "address":"\uad11\uc8fc\uad11\uc5ed\uc2dc \uc11c\uad6c \uc6d4\ub4dc\ucef54\uac15\ub85c 223 (\uc30d\ucd0c\ub3d9)", "phone":"062-380-3050", "Examination_item":"\uc77c\ubc18,\uc554\uac80\uc9c4,\uc601\uc720\uc544\uac80\uc9c4", "lat":126.868359, "lon":35.155892},
 {"id":4, "store_name":"\ub3d9\ucc9c\ud76c\ub9dd\uc18c\uc544\uacfc\uc758\uc6d0", "address":"\uad11\uc8fc\uad11\uc5ed\uc2dc \uc11c\uad6c \ub3d9\ucc9c\ub85c 25 206\ud638 (\ub3d9\ucc9c\ub3d9)", "phone":"062-515-5588", "Examination_item":"\uc601\uc720\uc544\uac80\uc9c4", "lat":126.858785, "lon":35.171126},
 {"id":5, "store_name":"\ubbf8\ub798\ub85c21\ubcd1\uc6d0", "address":"\uad11\uc8fc\uad11\uc5ed\uc2dc \uc11c\uad6c \ud654\uc6b4\ub85c 1 (\ud654\uc815\ub3d9)", "phone":"062-450-1900", "Examination_item":"\uc77c\ubc18,\uc554\uac80\uc9c4,\uc601\uc720\uc544\uac80\uc9c4", "lat":126.885289, "lon":35.140987},
 {"id":6, "store_name":"\ubbf8\uc988\ud53c\uc544\ubcd1\uc6d0", "address":"\uad11\uc8fc\uad11\uc5ed\uc2dc \uc11c\uad6c \uc2dc\uccad\ub85c 17 (\uce58\ud3c9\ub3d9)", "phone":"062-380-2000", "Examination_item":"\uc554\uac80\uc9c4,\uc601\uc720\uc544\uac80\uc9c4", "lat":126.851155, "lon":35.150069},
 {"id":7, "store_name":"\ubbfc\uc18c\uc544\uccad\uc18c\ub144\uacfc\uc758\uc6d0", "address":"\uad11\uc8fc\uad11\uc5ed\uc2dc \uc11c\uad6c \ud48d\uc554\uc911\uc559\ub85c 39 3\uce35 (\ud48d\uc554\ub3d9)", "phone":"062-376-3171", "Examination_item":"\uc601\uc720\uc544\uac80\uc9c4", "lat":126.878681, "lon":35.12517},
 {"id":8, "store_name":"\ubc15\uc601\uacbd\uc18c\uc544\uacfc\uc758\uc6d0", "address":"\uad11\uc8fc\uad11\uc5ed\uc2dc \uc11c\uad6c \ud654\uc815\ub85c 250 2 3 4\uce35 (\ud654\uc815\ub3d9)", "phone":"062-365-8638", "Examination_item":"\uc601\uc720\uc544\uac80\uc9c4", "lat":126.884259, "lon":35.147305},
 {"id":9, "store_name":"\ubcf5\uc74c\uc5f0\ud569\uc758\uc6d0", "address":"\uad11\uc8fc\uad11\uc5ed\uc2dc \uc11c\uad6c \uc5fc\ud654\ub85c 83 2\uce35 (\ud654\uc815\ub3d9)", "phone":"062-372-3772", "Examination_item":"\uc601\uc720\uc544\uac80\uc9c4", "lat":126.874092, "lon":35.142064},
 {"id":10, "store_name":"\uc0c1\ubb34\ubcd1\uc6d0", "address":"\uad11\uc8fc\uad11\uc5ed\uc2dc \uc11c\uad6c \uc0c1\ubb34\uc790\uc720\ub85c 181-7 (\uce58\ud3c9\ub3d9)", "phone":"062-600-7222", "Examination_item":"\uc77c\ubc18,\uc554\uac80\uc9c4,\uc601\uc720\uc544\uac80\uc9c4", "lat":126.853883, "lon":35.152745},
 {"id":11, "store_name":"\uc11c\uad11\ubcd1\uc6d0", "address":"\uad11\uc8fc\uad11\uc5ed\uc2dc \uc11c\uad6c \uae08\ud654\ub85c59\ubc88\uae38 6 (\uae08\ud638\ub3d9)", "phone":"062-600-8061", "Examination_item":"\uc77c\ubc18,\uc554\uac80\uc9c4,\uc601\uc720\uc544\uac80\uc9c4", "lat":126.855702, "lon":35.132535},
 {"id":12, "store_name":"\uc544\uc774\ud37c\uc2a4\ud2b8\uc544\ub3d9\ubcd1\uc6d0", "address":"\uad11\uc8fc\uad11\uc5ed\uc2dc \uc11c\uad6c \uc6b4\ucc9c\ub85c 227 (\uce58\ud3c9\ub3d9)", "phone":"062-414-1016", "Examination_item":"\uc601\uc720\uc544\uac80\uc9c4", "lat":126.854399, "lon":35.152768},
 {"id":13, "store_name":"\uc6b0\ub9ac\uc544\ub3d9\ubcd1\uc6d0", "address":"\uad11\uc8fc\uad11\uc5ed\uc2dc \uc11c\uad6c \ud48d\uae08\ub85c 167 (\uae08\ud638\ub3d9)", "phone":"062-670-7000", "Examination_item":"\uc601\uc720\uc544\uac80\uc9c4", "lat":126.859281, "lon":35.130848},
 {"id":14, "store_name":"\uc774\uc9c0\uc740\uc18c\uc544\uacfc\uc758\uc6d0", "address":"\uad11\uc8fc\uad11\uc5ed\uc2dc \uc11c\uad6c \ud654\uac1c1\ub85c 57 2\uce35 (\uae08\ud638\ub3d9)", "phone":"062-682-7525", "Examination_item":"\uc601\uc720\uc544\uac80\uc9c4", "lat":126.854981, "lon":35.129194},
 {"id":15, "store_name":"\uc774\ucca0\ubc94\uc774\ube44\uc778\ud6c4\uacfc\uc758\uc6d0", "address":"\uad11\uc8fc\uad11\uc5ed\uc2dc \uc11c\uad6c \uc5fc\ud654\ub85c 89 2\uce35 (\ud654\uc815\ub3d9)", "phone":"062-385-8575", "Examination_item":"\uc601\uc720\uc544\uac80\uc9c4", "lat":126.874295, "lon":35.142481},
 {"id":16, "store_name":"\uc870\uc18c\uc544\uccad\uc18c\ub144\uacfc\uc758\uc6d0", "address":"\uad11\uc8fc\uad11\uc5ed\uc2dc \uc11c\uad6c \uc0c1\ubb34\ubc84\ub4e4\ub85c 18 2\uce35 (\uc720\ucd0c\ub3d9)", "phone":"062-373-8275", "Examination_item":"\uc601\uc720\uc544\uac80\uc9c4", "lat":126.861499, "lon":35.164598},
 {"id":17, "store_name":"\ud55c\ub3c5\uc18c\uc544\uacfc\uc758\uc6d0", "address":"\uad11\uc8fc\uad11\uc5ed\uc2dc \uc11c\uad6c \ud48d\uc554\uc21c\ud658\ub85c 191 2\uce35 216\ud638 (\ud48d\uc554\ub3d9)", "phone":"062-681-8822", "Examination_item":"\uc601\uc720\uc544\uac80\uc9c4", "lat":126.881398, "lon":35.127007},
 {"id":18, "store_name":"\ud654\uc815\ud0a4\uc988\uc18c\uc544\uccad\uc18c\ub144\uacfc\uc758\uc6d0", "address":"\uad11\uc8fc\uad11\uc5ed\uc2dc \uc11c\uad6c \ud654\uc815\ub85c 222 301\ud638 (\ud654\uc815\ub3d9)", "phone":"062-352-5700", "Examination_item":"\uc601\uc720\uc544\uac80\uc9c4", "lat":126.881579, "lon":35.145892},
 {"id":19, "store_name":"(\uc0ac\ub2e8\ubc95\uc778)\ud55c\uad6d\uac74\uac15\uad00\ub9ac\ud611\ud68c\uac74\uac15\uc99d\uc9c4\uce58\uacfc\uc758\uc6d0", "address":"\uad11\uc8fc\uad11\uc5ed\uc2dc \uc11c\uad6c \ub300\ub0a8\ub300\ub85c 432 3\uce35 (\ub18d\uc131\ub3d9)", "phone":"062-363-2240", "Examination_item":"\uad6c\uac15\uac80\uc9c4,\ud559\uad50\ubc16\uccad\uc18c\ub144\uac80\uc9c4", "lat":126.888317, "lon":35.1491},
 {"id":20, "store_name":"e-\ud074\ub9b0\uce58\uacfc\uc758\uc6d0", "address":"\uad11\uc8fc\uad11\uc5ed\uc2dc \uc11c\uad6c \uc0c1\uc77c\ub85c 32 2\uce35 (\uc30d\ucd0c\ub3d9)", "phone":"062-384-2804", "Examination_item":"\uad6c\uac15\uac80\uc9c4", "lat":126.863287, "lon":35.158386},
 {"id":21, "store_name":"\uace0\uc6b0\ub2c8\uce58\uacfc\uc758\uc6d0", "address":"\uad11\uc8fc\uad11\uc5ed\uc2dc \uc11c\uad6c \uc6b4\ucc9c\ub85c113\ubc88\uae38 23 2\uce35 (\uc30d\ucd0c\ub3d9)", "phone":"062-371-2810", "Examination_item":"\uad6c\uac15\uac80\uc9c4", "lat":126.856738, "lon":35.143984},
 {"id":22, "store_name":"\uad11\uc8fc\uc774\ud50c\ub7ec\uc2a4\uce58\uacfc\uc758\uc6d0", "address":"\uad11\uc8fc\uad11\uc5ed\uc2dc \uc11c\uad6c \uc0c1\ubb34\uc911\uc559\ub85c28\ubc88\uae38 4 \uc138\uc9c4\ube4c\ub529 7\uce35 (\uce58\ud3c9\ub3d9)", "phone":"062-381-2879", "Examination_item":"\uad6c\uac15\uac80\uc9c4,\ud559\uad50\ubc16\uccad\uc18c\ub144\uac80\uc9c4", "lat":126.84893, "lon":35.14912},
 {"id":23, "store_name":"\ud55c\uad6d\uce58\uacfc\uc758\uc6d0", "address":"\uad11\uc8fc\uad11\uc5ed\uc2dc \uc11c\uad6c \uc6d4\ub4dc\ucef54\uac15\ub85c 221 2\uce35 (\uc30d\ucd0c\ub3d9)", "phone":"062-380-3228", "Examination_item":"\uad6c\uac15\uac80\uc9c4", "lat":126.869105, "lon":35.155908},
 {"id":24, "store_name":"\uad11\ucc9c\uc774\uce58\uacfc\uc758\uc6d0", "address":"\uad11\uc8fc\uad11\uc5ed\uc2dc \uc11c\uad6c \uc8fd\ubd09\ub300\ub85c 95 6\uce35 (\uad11\ucc9c\ub3d9)", "phone":"062-369-2888", "Examination_item":"\uad6c\uac15\uac80\uc9c4", "lat":126.883115, "lon":35.161942},
 {"id":25, "store_name":"\uad7f\ubaa8\ub2dd\uce58\uacfc\uc758\uc6d0", "address":"\uad11\uc8fc\uad11\uc5ed\uc2dc \uc11c\uad6c \ud48d\uae08\ub85c 2 2\uce35 (\ud48d\uc554\ub3d9  \uad11\ub355\ube4c\ub529)", "phone":"062-652-2842", "Examination_item":"\uad6c\uac15\uac80\uc9c4", "lat":126.866392, "lon":35.120467},
 {"id":26, "store_name":"\uad7f\uc2a4\ub9c8\uc77c\uce58\uacfc\uc758\uc6d0", "address":"\uad11\uc8fc\uad11\uc5ed\uc2dc \uc11c\uad6c \uc0c1\ubb34\ud3c9\ud654\ub85c 89 3\uce35 301 302\ud638 (\uce58\ud3c9\ub3d9)", "phone":"062-371-9351", "Examination_item":"\uad6c\uac15\uac80\uc9c4", "lat":126.848887, "lon":35.148254},
 {"id":27, "store_name":"\uae08\ud638\uaf2c\ub9c8\uc774\uce58\uacfc\uc758\uc6d0", "address":"\uad11\uc8fc\uad11\uc5ed\uc2dc \uc11c\uad6c \uae08\ud654\ub85c 90 2\uce35 (\uae08\ud638\ub3d9)", "phone":"062-655-7522", "Examination_item":"\uad6c\uac15\uac80\uc9c4", "lat":126.858552, "lon":35.131949},
 {"id":28, "store_name":"\uae08\ud638\ubcf4\uc2a4\ud1a4\uce58\uacfc\uc758\uc6d0", "address":"\uad11\uc8fc\uad11\uc5ed\uc2dc \uc11c\uad6c \uae08\ud654\ub85c 92 2\uce35 (\uae08\ud638\ub3d9)", "phone":"062-652-5533", "Examination_item":"\uad6c\uac15\uac80\uc9c4", "lat":126.858837, "lon":35.132006},
 {"id":29, "store_name":"\uae40\uc7ac\ub355\uce58\uacfc\uc758\uc6d0", "address":"\uad11\uc8fc\uad11\uc5ed\uc2dc \uc11c\uad6c \uc0c1\ubb34\ubc84\ub4e4\ub85c 28 3\uce35 (\uc720\ucd0c\ub3d9)", "phone":"062-369-2838", "Examination_item":"\uad6c\uac15\uac80\uc9c4", "lat":126.860346, "lon":35.164632},
 {"id":30, "store_name":"\uae40\uc7ac\uc601\uce58\uacfc\uc758\uc6d0", "address":"\uad11\uc8fc\uad11\uc5ed\uc2dc \uc11c\uad6c \uc6d4\ub4dc\ucef54\uac15\ub85c 84 2\uce35 (\ud654\uc815\ub3d9)", "phone":"062-371-5370", "Examination_item":"\uad6c\uac15\uac80\uc9c4", "lat":126.873941, "lon":35.144307},
 {"id":31, "store_name":"\uaf2c\ub9c8\uc774\uce58\uacfc\uc758\uc6d0", "address":"\uad11\uc8fc\uad11\uc5ed\uc2dc \uc11c\uad6c \uc0c1\ubb34\uc790\uc720\ub85c 170 3\uce35 (\uce58\ud3c9\ub3d9)", "phone":"062-381-2275", "Examination_item":"\uad6c\uac15\uac80\uc9c4", "lat":126.852707, "lon":35.151274},
 {"id":32, "store_name":"\ub178\uacbd\uc644\uce58\uacfc\uc758\uc6d0", "address":"\uad11\uc8fc\uad11\uc5ed\uc2dc \uc11c\uad6c \uacbd\uc5f4\ub85c 144 (\uc591\ub3d9)", "phone":"062-366-0245", "Examination_item":"\uad6c\uac15\uac80\uc9c4", "lat":126.90105, "lon":35.15384},
 {"id":33, "store_name":"\ub274\uc695\uc5f0\ud569\uce58\uacfc\uc758\uc6d0", "address":"\uad11\uc8fc\uad11\uc5ed\uc2dc \uc11c\uad6c \uc2dc\uccad\ub85c 41 303\ud638 (\uce58\ud3c9\ub3d9  \ub300\uc6b0\ube4c\ub529)", "phone":"062-385-2879", "Examination_item":"\uad6c\uac15\uac80\uc9c4", "lat":126.851081, "lon":35.152187},
 {"id":34, "store_name":"\ub2e4\uc0ac\ub791\uce58\uacfc\uc758\uc6d0", "address":"\uad11\uc8fc\uad11\uc5ed\uc2dc \uc11c\uad6c \uc0c1\uc77c\ub85c 54 2\uce35 (\uc30d\ucd0c\ub3d9)", "phone":"062-384-2879", "Examination_item":"\uad6c\uac15\uac80\uc9c4", "lat":126.863434, "lon":35.160425},
 {"id":35, "store_name":"\ub2f9\uc2e0\uc758,\uce58\uacfc\uc758\uc6d0", "address":"\uad11\uc8fc\uad11\uc5ed\uc2dc \uc11c\uad6c \ubb34\uc9c4\ub300\ub85c 919 \ud638\ubc18\uc368\ubc0b\ud50c\ub808\uc774\uc2a4 2\uce35 (\uad11\ucc9c\ub3d9)", "phone":"062-369-1111", "Examination_item":"\uad6c\uac15\uac80\uc9c4", "lat":126.880761, "lon":35.162353},
 {"id":36, "store_name":"\ub300\uad11\uce58\uacfc\uc758\uc6d0", "address":"\uad11\uc8fc\uad11\uc5ed\uc2dc \uc11c\uad6c \uc0c1\ubb34\uc911\uc559\ub85c 57 2\uce35 (\uce58\ud3c9\ub3d9)", "phone":"062-373-2565", "Examination_item":"\uad6c\uac15\uac80\uc9c4", "lat":126.847845, "lon":35.152129},
 {"id":37, "store_name":"\ub3d9\ub9bc\uad6c\uad6c\uce58\uacfc\uc758\uc6d0", "address":"\uad11\uc8fc\uad11\uc5ed\uc2dc \uc11c\uad6c \ud558\ub0a8\ub300\ub85c 686 2\uce35 (\ub3d9\ucc9c\ub3d9)", "phone":"062-510-6099", "Examination_item":"\uad6c\uac15\uac80\uc9c4", "lat":126.867671, "lon":35.171488},
 {"id":38, "store_name":"\ub3d9\ub9bc\uc6b0\ub9ac\uce58\uacfc\uc758\uc6d0", "address":"\uad11\uc8fc\uad11\uc5ed\uc2dc \uc11c\uad6c \ud558\ub0a8\ub300\ub85c 664 4\uce35 (\ub3d9\ucc9c\ub3d9)", "phone":"062-515-1875", "Examination_item":"\uad6c\uac15\uac80\uc9c4", "lat":126.865221, "lon":35.171637},
 {"id":39, "store_name":"\ub3d9\ub9bc\uc6f0\uce58\uacfc\uc758\uc6d0", "address":"\uad11\uc8fc\uad11\uc5ed\uc2dc \uc11c\uad6c \ud558\ub0a8\ub300\ub85c 706 401\ud638 (\ub3d9\ucc9c\ub3d9)", "phone":"062-531-2875", "Examination_item":"\uad6c\uac15\uac80\uc9c4", "lat":126.869913, "lon":35.171347},
 {"id":40, "store_name":"\ub450\ub9ac\uce58\uacfc\uc758\uc6d0", "address":"\uad11\uc8fc\uad11\uc5ed\uc2dc \uc11c\uad6c \ud48d\uc554\uc911\uc559\ub85c 55 4\uce35 (\ud48d\uc554\ub3d9)", "phone":"062-654-2755", "Examination_item":"\uad6c\uac15\uac80\uc9c4", "lat":126.880177, "lon":35.125634},
 {"id":41, "store_name":"\ub798\ubbf8\uc548\uce58\uacfc\uc758\uc6d0", "address":"\uad11\uc8fc\uad11\uc5ed\uc2dc \uc11c\uad6c \ud48d\uc554\uc911\uc559\ub85c 39 3\uce35 (\ud48d\uc554\ub3d9)", "phone":"062-682-2275", "Examination_item":"\uad6c\uac15\uac80\uc9c4", "lat":126.878681, "lon":35.12517},
 {"id":42, "store_name":"\ub958\uc885\ud68c\uce58\uacfc\uc758\uc6d0", "address":"\uad11\uc8fc\uad11\uc5ed\uc2dc \uc11c\uad6c \uc6b4\ucc9c\ub85c 14 2\uce35 (\uae08\ud638\ub3d9)", "phone":"062-376-7528", "Examination_item":"\uad6c\uac15\uac80\uc9c4", "lat":126.859545, "lon":35.133924},
 {"id":43, "store_name":"\ub9c8\uc7a5\uc120\uce58\uacfc\uc758\uc6d0", "address":"\uad11\uc8fc\uad11\uc5ed\uc2dc \uc11c\uad6c \uc6b4\ucc9c\ub85c 76 (\uae08\ud638\ub3d9  (\ub77c\uc778\uc0c1\uac00))", "phone":"062-373-2275", "Examination_item":"\uad6c\uac15\uac80\uc9c4", "lat":126.859086, "lon":35.139346},
 {"id":44, "store_name":"\uba54\ub514\ud544\uce58\uacfc\uc758\uc6d0", "address":"\uad11\uc8fc\uad11\uc5ed\uc2dc \uc11c\uad6c \uc8fd\ubd09\ub300\ub85c 76 6\uce35 (\ub18d\uc131\ub3d9)", "phone":"062-351-4114", "Examination_item":"\uad6c\uac15\uac80\uc9c4", "lat":126.883766, "lon":35.160091},
 {"id":45, "store_name":"\uba85\uc778\uce58\uacfc\ubcd1\uc6d0", "address":"\uad11\uc8fc\uad11\uc5ed\uc2dc \uc11c\uad6c \uae08\ud654\ub85c 96 5~6\uce35 (\uae08\ud638\ub3d9)", "phone":"062-682-2875", "Examination_item":"\uad6c\uac15\uac80\uc9c4", "lat":126.859133, "lon":35.132},
 {"id":46, "store_name":"\ubb34\uc9c0\uac1c\uce58\uacfc\uc758\uc6d0", "address":"\uad11\uc8fc\uad11\uc5ed\uc2dc \uc11c\uad6c \ud654\uc815\ub85c 126 \uc0c1\uac001\ub3d9 2\uce35 202\ud638 (\ud654\uc815\ub3d9  \ud654\uc815\ub3d9 \ub300\uc8fc\ud53c\uc624\ub808)", "phone":"062-384-2888", "Examination_item":"\uad6c\uac15\uac80\uc9c4", "lat":126.870757, "lon":35.144431},
 {"id":47, "store_name":"\ubb38\ud0dc\uc218\uce58\uacfc\uc758\uc6d0", "address":"\uad11\uc8fc\uad11\uc5ed\uc2dc \uc11c\uad6c \ub9c8\uc7ac\ub85c 23 206\ud638 (\uae08\ud638\ub3d9  \uc911\ud765\uc0c1\uac00)", "phone":"062-681-7693", "Examination_item":"\uad6c\uac15\uac80\uc9c4", "lat":126.862248, "lon":35.130515},
 {"id":48, "store_name":"\ubbf8\ub798\ub85c21\uce58\uacfc\uc758\uc6d0", "address":"\uad11\uc8fc\uad11\uc5ed\uc2dc \uc11c\uad6c \ud654\uc6b4\ub85c 1 (\ud654\uc815\ub3d9)", "phone":"062-450-1875", "Examination_item":"\uad6c\uac15\uac80\uc9c4", "lat":126.885289, "lon":35.140987},
 {"id":49, "store_name":"\ubbf8\ub974\uce58\uacfc\uc758\uc6d0", "address":"\uad11\uc8fc\uad11\uc5ed\uc2dc \uc11c\uad6c \uc6b4\ucc9c\ub85c 231 (\uce58\ud3c9\ub3d9)", "phone":"062-600-2800", "Examination_item":"\uad6c\uac15\uac80\uc9c4", "lat":126.854447, "lon":35.15321},
 {"id":50, "store_name":"\ubbf8\uc18c\ub97c\ub4dc\ub9bc\uce58\uacfc\uc758\uc6d0", "address":"\uad11\uc8fc\uad11\uc5ed\uc2dc \uc11c\uad6c \ud48d\uc554\uc911\uc559\ub85c 41 (\ud48d\uc554\ub3d9)", "phone":"062-682-7722", "Examination_item":"\uad6c\uac15\uac80\uc9c4", "lat":126.878855, "lon":35.125225},
 {"id":51, "store_name":"\ubbf8\uc18c\uce58\uacfc\uc758\uc6d0", "address":"\uad11\uc8fc\uad11\uc5ed\uc2dc \uc11c\uad6c \ud654\uac1c1\ub85c79\ubc88\uae38 3 2\uce35 (\uae08\ud638\ub3d9)", "phone":"062-655-2855", "Examination_item":"\uad6c\uac15\uac80\uc9c4", "lat":126.854781, "lon":35.13094},
 {"id":52, "store_name":"\ubbf8\ud50c\ub7ec\uc2a4\uce58\uacfc\uc758\uc6d0", "address":"\uad11\uc8fc\uad11\uc5ed\uc2dc \uc11c\uad6c \ud558\ub0a8\ub300\ub85c 654 3\uce35 (\ub3d9\ucc9c\ub3d9  \ub3d9\ub9bc\uc2dc\ud2f0\ube4c\ub529)", "phone":"062-512-2275", "Examination_item":"\uad6c\uac15\uac80\uc9c4", "lat":126.864101, "lon":35.171698},
 {"id":53, "store_name":"\ubc14\ub978\uc218\uce58\uacfc\uc758\uc6d0", "address":"\uad11\uc8fc\uad11\uc5ed\uc2dc \uc11c\uad6c \uc0c1\ubb34\ub300\ub85c 1084 3\uce35 301\ud638 (\ud654\uc815\ub3d9)", "phone":"062-710-7528", "Examination_item":"\uad6c\uac15\uac80\uc9c4", "lat":126.880426, "lon":35.152371},
 {"id":54, "store_name":"\ubc14\ub978\uc728\uce58\uacfc\uc758\uc6d0", "address":"\uad11\uc8fc\uad11\uc5ed\uc2dc \uc11c\uad6c \uae08\ud654\ub85c 58 3\uce35 (\uae08\ud638\ub3d9)", "phone":"062-671-0075", "Examination_item":"\uad6c\uac15\uac80\uc9c4", "lat":126.854945, "lon":35.131753},
 {"id":55, "store_name":"\ubc18\uc11d\uce58\uacfc\uad50\uc815\uacfc\uad6c\uac15\uc545\uc548\uba74\uc678\uacfc\uce58\uacfc\uc758\uc6d0", "address":"\uad11\uc8fc\uad11\uc5ed\uc2dc \uc11c\uad6c \uc0c1\ubb34\uc911\uc559\ub85c 9 \ub3d9\uc591\ube4c\ub529 6\uce35 (\uce58\ud3c9\ub3d9)", "phone":"062-384-7528", "Examination_item":"\uad6c\uac15\uac80\uc9c4", "lat":126.847906, "lon":35.14774},
 {"id":56, "store_name":"\ubc84\ub4e4\uce58\uacfc\uc758\uc6d0", "address":"\uad11\uc8fc\uad11\uc5ed\uc2dc \uc11c\uad6c \uc0c1\ubb34\ubc84\ub4e4\ub85c 18 2\uce35 201\ud638 (\uc720\ucd0c\ub3d9)", "phone":"062-384-2875", "Examination_item":"\uad6c\uac15\uac80\uc9c4", "lat":126.861499, "lon":35.164598},
 {"id":57, "store_name":"\ube44\uc190\uce58\uacfc\uc758\uc6d0", "address":"\uad11\uc8fc\uad11\uc5ed\uc2dc \uc11c\uad6c \uc6b4\ucc9c\ub85c 1 3\uce35 (\uae08\ud638\ub3d9)", "phone":"062-371-2750", "Examination_item":"\uad6c\uac15\uac80\uc9c4", "lat":126.859066, "lon":35.132865},
 {"id":58, "store_name":"\ubfcc\ub9ac\uce58\uacfc\uc758\uc6d0", "address":"\uad11\uc8fc\uad11\uc5ed\uc2dc \uc11c\uad6c \uc6d4\ub4dc\ucef54\uac15\ub85c 239 4\uce35 (\uc30d\ucd0c\ub3d9)", "phone":"062-716-2885", "Examination_item":"\uad6c\uac15\uac80\uc9c4", "lat":126.868863, "lon":35.157564},
 {"id":59, "store_name":"\uc0ac\ub791\uc560\uce58\uacfc\uc758\uc6d0", "address":"\uad11\uc8fc\uad11\uc5ed\uc2dc \uc11c\uad6c \ud654\uac1c1\ub85c79\ubc88\uae38 8 2\uce35 30\ud638 (\uae08\ud638\ub3d9)", "phone":"062-654-2872", "Examination_item":"\uad6c\uac15\uac80\uc9c4", "lat":126.854118, "lon":35.131268},
 {"id":60, "store_name":"\uc0c1\ubb34\ubc14\ub978\uc774\uce58\uacfc\uc758\uc6d0", "address":"\uad11\uc8fc\uad11\uc5ed\uc2dc \uc11c\uad6c \uce58\ud3c9\ub85c 26 (\uce58\ud3c9\ub3d9)", "phone":"062-381-2875", "Examination_item":"\uad6c\uac15\uac80\uc9c4", "lat":126.84767, "lon":35.149685},
 {"id":61, "store_name":"\uc0c1\ubb34\uc218\uce58\uacfc\uc758\uc6d0", "address":"\uad11\uc8fc\uad11\uc5ed\uc2dc \uc11c\uad6c \ub9c8\ub975\ubcf5\uac1c\ub85c 91 DY\ube4c\ub529 2\uce35 202\ud638 (\ub9c8\ub975\ub3d9)", "phone":"062-371-4028", "Examination_item":"\uad6c\uac15\uac80\uc9c4", "lat":126.849351, "lon":35.145654},
 {"id":62, "store_name":"\uc0c1\ubb34\uc2a4\ud0c0\uce58\uacfc\ubcd1\uc6d0", "address":"\uad11\uc8fc\uad11\uc5ed\uc2dc \uc11c\uad6c \uc0c1\ubb34\uc911\uc559\ub85c 58 7\uce35 (\uce58\ud3c9\ub3d9)", "phone":"062-367-8889", "Examination_item":"\uad6c\uac15\uac80\uc9c4", "lat":126.84892, "lon":35.152112},
 {"id":63, "store_name":"\uc0c1\ubb34\uce58\uacfc\uc758\uc6d0", "address":"\uad11\uc8fc\uad11\uc5ed\uc2dc \uc11c\uad6c \uc6b4\ucc9c\ub85c 225 \uc9c0\ud5581\uce35 (\uce58\ud3c9\ub3d9  \uc0c1\ubb34\ud790\ud0c0\uc6cc)", "phone":"062-372-7228", "Examination_item":"\uad6c\uac15\uac80\uc9c4", "lat":126.854391, "lon":35.152507},
 {"id":64, "store_name":"\uc0c1\ucf8c\ud55c\uce58\uacfc\uc758\uc6d0", "address":"\uad11\uc8fc\uad11\uc5ed\uc2dc \uc11c\uad6c \ud654\uc6b4\ub85c 24 105 106\ud638 (\ud654\uc815\ub3d9  \uc720\ub2c8\ubc84\uc2dc\uc544\ub4dc\ud790\uc2a4\ud14c\uc774\ud2b83\ub2e8\uc9c0)", "phone":"062-369-8275", "Examination_item":"\uad6c\uac15\uac80\uc9c4", "lat":126.884864, "lon":35.143966},
 {"id":65, "store_name":"\uc0c8\ud55c\uce58\uacfc\uc758\uc6d0", "address":"\uad11\uc8fc\uad11\uc5ed\uc2dc \uc11c\uad6c \uc6b4\ucc9c\ub85c56\ubc88\uae38 7 201\ud638 (\uae08\ud638\ub3d9  \ud55c\uad6d\uc544\ud30c\ud2b8 \uc0c1\uac00)", "phone":"062-376-2875", "Examination_item":"\uad6c\uac15\uac80\uc9c4", "lat":126.859916, "lon":35.13802},
 {"id":66, "store_name":"\uc0d8\uce58\uacfc\uc758\uc6d0", "address":"\uad11\uc8fc\uad11\uc5ed\uc2dc \uc11c\uad6c \uc0c1\ubb34\uc911\uc559\ub85c 103 2\uce35 (\uce58\ud3c9\ub3d9)", "phone":"062-371-8275", "Examination_item":"\uad6c\uac15\uac80\uc9c4", "lat":126.847765, "lon":35.15623},
 {"id":67, "store_name":"\uc120\uc774\uace0\uc6b4,\uce58\uacfc\uad50\uc815\uacfc,\uce58\uacfc\uc758\uc6d0", "address":"\uad11\uc8fc\uad11\uc5ed\uc2dc \uc11c\uad6c \ubb34\uc9c4\ub300\ub85c 950 5\uce35 (\ub18d\uc131\ub3d9  \uba85\uc548\ube4c\ub529)", "phone":"062-367-2279", "Examination_item":"\uad6c\uac15\uac80\uc9c4", "lat":126.884502, "lon":35.1609},
 {"id":68, "store_name":"\uc120\ud55c\ubcd1\uc6d0", "address":"\uad11\uc8fc\uad11\uc5ed\uc2dc \uc11c\uad6c \ubb34\uc9c4\ub300\ub85c 975-0 (\uad11\ucc9c\ub3d9)", "phone":"062-466-1300", "Examination_item":"\uc77c\ubc18,\uc554\uac80\uc9c4,\uad6c\uac15\uac80\uc9c4", "lat":126.886808, "lon":35.161624},
 {"id":69, "store_name":"\uc18c\uce58\uacfc\uc758\uc6d0", "address":"\uad11\uc8fc\uad11\uc5ed\uc2dc \uc11c\uad6c \ud48d\uae08\ub85c 171 4\uce35 2\ud638 (\uae08\ud638\ub3d9  \ud3c9\ud654\ube4c\ub529)", "phone":"062-266-8275", "Examination_item":"\uad6c\uac15\uac80\uc9c4", "lat":126.859245, "lon":35.131064},
 {"id":70, "store_name":"\uc2a4\ub9c8\ud2b8\uc6d0\uce58\uacfc\uc758\uc6d0", "address":"\uad11\uc8fc\uad11\uc5ed\uc2dc \uc11c\uad6c \uc6b4\ucc9c\ub85c 148 4\uce35 (\uc30d\ucd0c\ub3d9)", "phone":"062-717-1111", "Examination_item":"\uad6c\uac15\uac80\uc9c4", "lat":126.857481, "lon":35.145785},
 {"id":71, "store_name":"\uc2a4\ud398\uc15c\uce58\uacfc\uc758\uc6d0", "address":"\uad11\uc8fc\uad11\uc5ed\uc2dc \uc11c\uad6c \uc0c1\ubb34\uc2dc\ubbfc\ub85c 75 3\uce35 (\uce58\ud3c9\ub3d9)", "phone":"062-447-1100", "Examination_item":"\uad6c\uac15\uac80\uc9c4", "lat":126.847062, "lon":35.155484},
 {"id":72, "store_name":"\uc544\uc774\ud37c\uc2a4\ud2b8\uce58\uacfc\uc758\uc6d0", "address":"\uad11\uc8fc\uad11\uc5ed\uc2dc \uc11c\uad6c \uc6b4\ucc9c\ub85c 227 7\uce35 (\uce58\ud3c9\ub3d9)", "phone":"062-414-1075", "Examination_item":"\uad6c\uac15\uac80\uc9c4", "lat":126.854399, "lon":35.152768},
 {"id":73, "store_name":"\uc5d0\uc2a4\ub514\uce58\uacfc\uad50\uc815\uacfc\uce58\uacfc\uc758\uc6d0", "address":"\uad11\uc8fc\uad11\uc5ed\uc2dc \uc11c\uad6c \ubb34\uc9c4\ub300\ub85c 935 2\uce35 (\uad11\ucc9c\ub3d9)", "phone":"062-361-2879", "Examination_item":"\uad6c\uac15\uac80\uc9c4", "lat":126.88272, "lon":35.161956},
 {"id":74, "store_name":"\uc5f0\uc138\ubbf8\uce58\uacfc\uc758\uc6d0", "address":"\uad11\uc8fc\uad11\uc5ed\uc2dc \uc11c\uad6c \uc0c1\ubb34\uc911\uc559\ub85c 42 4\uce35 (\uce58\ud3c9\ub3d9  \uc624\uc1582\ube4c\ub529)", "phone":"062-432-2875", "Examination_item":"\uad6c\uac15\uac80\uc9c4", "lat":126.848898, "lon":35.150607},
 {"id":75, "store_name":"\uc5f0\uc138\ubbfc\uce58\uacfc\uc758\uc6d0", "address":"\uad11\uc8fc\uad11\uc5ed\uc2dc \uc11c\uad6c \uae08\ud654\ub85c 88 (\uae08\ud638\ub3d9)", "phone":"062-682-4114", "Examination_item":"\uad6c\uac15\uac80\uc9c4", "lat":126.858235, "lon":35.131919},
 {"id":76, "store_name":"\uc608\uc778\uce58\uacfc\uc758\uc6d0", "address":"\uad11\uc8fc\uad11\uc5ed\uc2dc \uc11c\uad6c \ud48d\uc5542\ub85c 20 3\uce35 (\ud48d\uc554\ub3d9)", "phone":"062-653-2575", "Examination_item":"\uad6c\uac15\uac80\uc9c4", "lat":126.880019, "lon":35.125975},
 {"id":77, "store_name":"\uc624\ud544\uad50\uce58\uacfc\uc758\uc6d0", "address":"\uad11\uc8fc\uad11\uc5ed\uc2dc \uc11c\uad6c \uc6d4\ub4dc\ucef54\uac15\ub85c42\ubc88\uae38 53 2\uce35 (\ud654\uc815\ub3d9)", "phone":"062-367-1198", "Examination_item":"\uad6c\uac15\uac80\uc9c4", "lat":126.881481, "lon":35.141835},
 {"id":78, "store_name":"\uc628\ub204\ub9ac\uce58\uacfc\uc758\uc6d0", "address":"\uad11\uc8fc\uad11\uc5ed\uc2dc \uc11c\uad6c \ud48d\uc554\uc21c\ud658\ub85c 99 2\uce35 (\ud48d\uc554\ub3d9)", "phone":"062-681-2858", "Examination_item":"\uad6c\uac15\uac80\uc9c4", "lat":126.882354, "lon":35.121292},
 {"id":79, "store_name":"\uc628\uc720\uce58\uacfc\uc758\uc6d0", "address":"\uad11\uc8fc\uad11\uc5ed\uc2dc \uc11c\uad6c \uc6d4\ub4dc\ucef54\uac15\ub85c116\ubc88\uae38 2 2\uce35 (\ud654\uc815\ub3d9)", "phone":"062-385-2204", "Examination_item":"\uad6c\uac15\uac80\uc9c4", "lat":126.872357, "lon":35.146933},
 {"id":80, "store_name":"\uc6b0\ub9ac\ub3d9\ub124\uce58\uacfc\uc758\uc6d0", "address":"\uad11\uc8fc\uad11\uc5ed\uc2dc \uc11c\uad6c \uc6d4\ub4dc\ucef54\uac15\ub85c 112 3\uce35 301~302\ud638 (\ud654\uc815\ub3d9)", "phone":"062-363-2872", "Examination_item":"\uad6c\uac15\uac80\uc9c4", "lat":126.872613, "lon":35.146665},
 {"id":81, "store_name":"\uc774\ub4e0\uce58\uacfc\uc758\uc6d0", "address":"\uad11\uc8fc\uad11\uc5ed\uc2dc \uc11c\uad6c \uc6d4\ub4dc\ucef54\uac15\ub85c 60 2\uce35 (\ud654\uc815\ub3d9)", "phone":"062-372-2204", "Examination_item":"\uad6c\uac15\uac80\uc9c4", "lat":126.875076, "lon":35.142389},
 {"id":82, "store_name":"\uc774\uc0ac\ub791\uce58\uacfc\uc758\uc6d0", "address":"\uad11\uc8fc\uad11\uc5ed\uc2dc \uc11c\uad6c \uc6b4\ucc9c\ub85c 73 2\uce35 (\uae08\ud638\ub3d9  \uc77c\uc2e0\uba85\uc9c0\uc544\ud30c\ud2b8\uc0c1\uac00)", "phone":"062-376-0875", "Examination_item":"\uad6c\uac15\uac80\uc9c4", "lat":126.858506, "lon":35.139178},
 {"id":83, "store_name":"\uc774\uc870\uc740\uce58\uacfc\uc758\uc6d0", "address":"\uad11\uc8fc\uad11\uc5ed\uc2dc \uc11c\uad6c \ud48d\uc5542\ub85c 14 3\uce35 (\ud48d\uc554\ub3d9)", "phone":"062-681-1515", "Examination_item":"\uad6c\uac15\uac80\uc9c4", "lat":126.879826, "lon":35.126424},
 {"id":84, "store_name":"\uc774\uc9c0\uce58\uacfc\uc758\uc6d0", "address":"\uad11\uc8fc\uad11\uc5ed\uc2dc \uc11c\uad6c \uc8fd\ubd09\ub300\ub85c 66 3\uce35 (\ub18d\uc131\ub3d9  \uc5d8\uc9c0\uc0dd\ud65c\uac74\uac15)", "phone":"062-361-7528", "Examination_item":"\uad6c\uac15\uac80\uc9c4", "lat":126.883648, "lon":35.159126},
 {"id":85, "store_name":"\uc774\uc9c0\ud50c\ub780\ud2b8\uce58\uacfc\uc758\uc6d0", "address":"\uad11\uc8fc\uad11\uc5ed\uc2dc \uc11c\uad6c \ud558\ub0a8\ub300\ub85c 702 (\ub3d9\ucc9c\ub3d9)", "phone":"062-511-7528", "Examination_item":"\uad6c\uac15\uac80\uc9c4", "lat":126.869451, "lon":35.171415},
 {"id":86, "store_name":"\uc774\ucc3d\uc12d\uce58\uacfc\uc758\uc6d0", "address":"\uad11\uc8fc\uad11\uc5ed\uc2dc \uc11c\uad6c \uc6b4\ucc9c\ub85c 6 3\uce35 (\uae08\ud638\ub3d9)", "phone":"062-383-2872", "Examination_item":"\uad6c\uac15\uac80\uc9c4", "lat":126.859743, "lon":35.133096},
 {"id":87, "store_name":"\uc774\ud50c\uce58\uacfc\uc758\uc6d0", "address":"\uad11\uc8fc\uad11\uc5ed\uc2dc \uc11c\uad6c \uae08\ud654\ub85c 59 1\uce35 (\uae08\ud638\ub3d9)", "phone":"062-365-8275", "Examination_item":"\uad6c\uac15\uac80\uc9c4", "lat":126.855476, "lon":35.132272},
 {"id":88, "store_name":"\uc774\ud55c\uce58\uacfc\uc758\uc6d0", "address":"\uad11\uc8fc\uad11\uc5ed\uc2dc \uc11c\uad6c \uce58\ud3c9\ub85c 30 3\uce35 (\uce58\ud3c9\ub3d9)", "phone":"062-384-2872", "Examination_item":"\uad6c\uac15\uac80\uc9c4", "lat":126.847667, "lon":35.149955},
 {"id":89, "store_name":"\uc778\ud558\ub8e8\uce58\uacfc\uc758\uc6d0", "address":"\uad11\uc8fc\uad11\uc5ed\uc2dc \uc11c\uad6c \uc8fd\ubd09\ub300\ub85c 99 3\uce35 (\uad11\ucc9c\ub3d9)", "phone":"062-369-2828", "Examination_item":"\uad6c\uac15\uac80\uc9c4", "lat":126.883232, "lon":35.162268},
 {"id":90, "store_name":"\uc784\uc601\uc11d\uce58\uacfc\uc758\uc6d0", "address":"\uad11\uc8fc\uad11\uc5ed\uc2dc \uc11c\uad6c \uacbd\uc5f4\ub85c 143 (\uc591\ub3d9)", "phone":"062-368-2828", "Examination_item":"\uad6c\uac15\uac80\uc9c4", "lat":126.900705, "lon":35.154198},
 {"id":91, "store_name":"\uc790\uc774\uce58\uacfc\uc758\uc6d0", "address":"\uad11\uc8fc\uad11\uc5ed\uc2dc \uc11c\uad6c \ud654\uac1c1\ub85c 55 \uc138\ubaa8\ube4c\ub529 3\uce35 (\uae08\ud638\ub3d9)", "phone":"062-682-2842", "Examination_item":"\uad6c\uac15\uac80\uc9c4", "lat":126.854974, "lon":35.12895},
 {"id":92, "store_name":"\uc7a5\uc774\ubb38,\uce58\uacfc\uad50\uc815\uacfc,\uce58\uacfc\uc758\uc6d0", "address":"\uad11\uc8fc\uad11\uc5ed\uc2dc \uc11c\uad6c \ud48d\uc5541\ub85c 7 4\uce35 (\ud48d\uc554\ub3d9  \ub300\uc8fc\ube4c\ub529)", "phone":"062-681-2897", "Examination_item":"\uad6c\uac15\uac80\uc9c4", "lat":126.877929, "lon":35.126362},
 {"id":93, "store_name":"\uc815\ubd80\ubd80\uce58\uacfc\uc758\uc6d0", "address":"\uad11\uc8fc\uad11\uc5ed\uc2dc \uc11c\uad6c \uc0c1\ubb34\uc911\uc559\ub85c 43 3\uce35 (\uce58\ud3c9\ub3d9  BYC\ube4c\ub529)", "phone":"062-375-2875", "Examination_item":"\uad6c\uac15\uac80\uc9c4", "lat":126.847827, "lon":35.151011},
 {"id":94, "store_name":"\uc81c\uc774\ud0d1\uce58\uacfc\uc758\uc6d0", "address":"\uad11\uc8fc\uad11\uc5ed\uc2dc \uc11c\uad6c \ud654\uc815\ub85c244\ubc88\uae38 1 3\uce35 (\ud654\uc815\ub3d9)", "phone":"062-365-2275", "Examination_item":"\uad6c\uac15\uac80\uc9c4,\ud559\uad50\ubc16\uccad\uc18c\ub144\uac80\uc9c4", "lat":126.8839, "lon":35.147085},
 {"id":95, "store_name":"\uc870\uc774\uce58\uacfc\uc758\uc6d0", "address":"\uad11\uc8fc\uad11\uc5ed\uc2dc \uc11c\uad6c \ub3d9\ucc9c\ub85c 13 202\ud638 (\ub3d9\ucc9c\ub3d9  \ub3d9\ucc9c\ub9c8\uc744\uc8fc\uacf52\ub2e8\uc9c0)", "phone":"062-528-7282", "Examination_item":"\uad6c\uac15\uac80\uc9c4", "lat":126.860041, "lon":35.169948},
 {"id":96, "store_name":"\uc990\uac70\uc6b4\uce58\uacfc\uc758\uc6d0", "address":"\uad11\uc8fc\uad11\uc5ed\uc2dc \uc11c\uad6c \ud48d\uc554\uc911\uc559\ub85c 37 303\ud638 (\ud48d\uc554\ub3d9  \uadf8\ub79c\ub4dc\ud504\ub77c\uc790)", "phone":"062-682-7528", "Examination_item":"\uad6c\uac15\uac80\uc9c4", "lat":126.878462, "lon":35.125114},
 {"id":97, "store_name":"\uc9c0\uad6d\uc12d\uce58\uacfc\uc758\uc6d0", "address":"\uad11\uc8fc\uad11\uc5ed\uc2dc \uc11c\uad6c \uc0c1\ubb34\ub300\ub85c 773 4\uce35 (\uce58\ud3c9\ub3d9)", "phone":"062-376-2275", "Examination_item":"\uad6c\uac15\uac80\uc9c4", "lat":126.847295, "lon":35.146707},
 {"id":98, "store_name":"\uccad\uc544\uce58\uacfc\uc758\uc6d0", "address":"\uad11\uc8fc\uad11\uc5ed\uc2dc \uc11c\uad6c \ub0b4\ubc29\ub85c 248 2\uce35 (\uc30d\ucd0c\ub3d9)", "phone":"062-373-0275", "Examination_item":"\uad6c\uac15\uac80\uc9c4", "lat":126.867665, "lon":35.15767},
 {"id":99, "store_name":"\ucd5c\uc9c4\uc601\uce58\uacfc\uc758\uc6d0", "address":"\uad11\uc8fc\uad11\uc5ed\uc2dc \uc11c\uad6c \uc0c1\ubb34\ub300\ub85c 1070 2\uce35 (\ud654\uc815\ub3d9)", "phone":"062-362-9600", "Examination_item":"\uad6c\uac15\uac80\uc9c4", "lat":126.879024, "lon":35.152142},
 {"id":100, "store_name":"\ud478\ub978\ud558\ub298\uce58\uacfc\uc758\uc6d0", "address":"\uad11\uc8fc\uad11\uc5ed\uc2dc \uc11c\uad6c \ud48d\uc554\uc911\uc559\ub85c 47 2\uce35 (\ud48d\uc554\ub3d9)", "phone":"062-682-2879", "Examination_item":"\uad6c\uac15\uac80\uc9c4", "lat":126.879445, "lon":35.125411},
 {"id":101, "store_name":"\ud55c\uc0ac\ub791\uce58\uacfc\uc758\uc6d0", "address":"\uad11\uc8fc\uad11\uc5ed\uc2dc \uc11c\uad6c \uc5fc\ud654\ub85c 96 4\uce35 (\ud654\uc815\ub3d9  \ub355\ub9bc\ube4c\ub529)", "phone":"062-375-2811", "Examination_item":"\uad6c\uac15\uac80\uc9c4", "lat":126.87503, "lon":35.142533},
 {"id":102, "store_name":"\ud55c\uc2a4\uce58\uacfc\uc758\uc6d0", "address":"\uad11\uc8fc\uad11\uc5ed\uc2dc \uc11c\uad6c \uc0c1\ubb34\uc911\uc559\ub85c 95 5\uce35 (\uce58\ud3c9\ub3d9)", "phone":"062-371-2872", "Examination_item":"\uad6c\uac15\uac80\uc9c4", "lat":126.847775, "lon":35.155509},
 {"id":103, "store_name":"\ud568\uaed8\uc6c3\ub294\uce58\uacfc\uc758\uc6d0", "address":"\uad11\uc8fc\uad11\uc5ed\uc2dc \uc11c\uad6c \uc5fc\ud654\ub85c57\ubc88\uae38 1 1\uce35 (\ud654\uc815\ub3d9  \uae08\ud638\ud0c0\uc6b41\ucc28\uc544\ud30c\ud2b8\uc0c1\uac00)", "phone":"062-372-2809", "Examination_item":"\uad6c\uac15\uac80\uc9c4", "lat":126.872471, "lon":35.139516},
 {"id":104, "store_name":"\ud574\ub9d1\uc740\uce58\uacfc\uc758\uc6d0", "address":"\uad11\uc8fc\uad11\uc5ed\uc2dc \uc11c\uad6c \ud48d\uc5541\ub85c21\ubc88\uae38 9-22 2\uce35 (\ud48d\uc554\ub3d9  \ud604\uc778\ube4c\ub529)", "phone":"062-653-2275", "Examination_item":"\uad6c\uac15\uac80\uc9c4", "lat":126.879121, "lon":35.126688},
 {"id":105, "store_name":"\ud5a5\uae30\ub85c\uc6b4\uc0ac\uacfc\ub098\ubb34\uce58\uacfc\uc758\uc6d0", "address":"\uad11\uc8fc\uad11\uc5ed\uc2dc \uc11c\uad6c \uc6d4\ub4dc\ucef54\uac15\ub85c 30 3\uce35 (\ud654\uc815\ub3d9)", "phone":"062-263-2875", "Examination_item":"\uad6c\uac15\uac80\uc9c4", "lat":126.876448, "lon":35.139941},
 {"id":106, "store_name":"\ud5c8\uc6c5\uce58\uacfc\uc758\uc6d0", "address":"\uad11\uc8fc\uad11\uc5ed\uc2dc \uc11c\uad6c \uc0c1\ubb34\ubc84\ub4e4\ub85c 19 2\uce35 (\uc720\ucd0c\ub3d9)", "phone":"062-383-7528", "Examination_item":"\uad6c\uac15\uac80\uc9c4", "lat":126.861318, "lon":35.164218},
 {"id":107, "store_name":"\ud615\uce58\uacfc\uc758\uc6d0", "address":"\uad11\uc8fc\uad11\uc5ed\uc2dc \uc11c\uad6c \ud654\uc6b4\ub85c 304-1 2\uce35 (\uad11\ucc9c\ub3d9  \uc815\uc6d0\ube4c\ub529)", "phone":"062-367-0025", "Examination_item":"\uad6c\uac15\uac80\uc9c4", "lat":126.877989, "lon":35.165969},
 {"id":108, "store_name":"\ud638\uce58\uacfc\uc758\uc6d0", "address":"\uad11\uc8fc\uad11\uc5ed\uc2dc \uc11c\uad6c \ud654\uac1c1\ub85c24\ubc88\uae38 9 2\uce35 (\uae08\ud638\ub3d9  \ub300\uc8fc\ud30c\ud06c\ube4c\uc0c1\uac00)", "phone":"062-681-2879", "Examination_item":"\uad6c\uac15\uac80\uc9c4", "lat":126.856243, "lon":35.127619},
 {"id":109, "store_name":"\ud64d\uc775\uce58\uacfc\uc758\uc6d0", "address":"\uad11\uc8fc\uad11\uc5ed\uc2dc \uc11c\uad6c \uc0c1\ubb34\ud3c9\ud654\ub85c 79 2\uce35 (\uce58\ud3c9\ub3d9)", "phone":"062-372-7528", "Examination_item":"\uad6c\uac15\uac80\uc9c4", "lat":126.847778, "lon":35.148253},
 {"id":110, "store_name":"\ud654\uc815\uc5f0\uce58\uacfc\uc758\uc6d0", "address":"\uad11\uc8fc\uad11\uc5ed\uc2dc \uc11c\uad6c \uc5fc\ud654\ub85c 27 2\uce35 203\ud638 (\ud654\uc815\ub3d9)", "phone":"062-223-1177", "Examination_item":"\uad6c\uac15\uac80\uc9c4", "lat":126.872407, "lon":35.136974},
 {"id":111, "store_name":"\ud6c8\uce58\uacfc\uc758\uc6d0", "address":"\uad11\uc8fc\uad11\uc5ed\uc2dc \uc11c\uad6c \uc6b4\ucc9c\ub85c 10 4\uce35 (\uae08\ud638\ub3d9)", "phone":"062-381-7528", "Examination_item":"\uad6c\uac15\uac80\uc9c4", "lat":126.859595, "lon":35.133474},
 {"id":112, "store_name":"\ud734\uce58\uacfc\uc758\uc6d0", "address":"\uad11\uc8fc\uad11\uc5ed\uc2dc \uc11c\uad6c \uc6b4\ucc9c\ub85c 131 A\ub3d9 1\uce35 114\ud638 (\uc30d\ucd0c\ub3d9  \uae08\ud638\ubca0\uc5b4\uc2a4\ud0c0\uc6b4)", "phone":"062-376-2878", "Examination_item":"\uad6c\uac15\uac80\uc9c4", "lat":126.856794, "lon":35.144687},
 {"id":113, "store_name":"\ubc1d\uc740\uc18c\uc544\uccad\uc18c\ub144\uacfc\uc758\uc6d0", "address":"\uad11\uc8fc\uad11\uc5ed\uc2dc \ub3d9\uad6c \ubb34\ub4f1\ub85c 386 3\uce35 (\uacc4\ub9bc\ub3d9)", "phone":"062-222-1134", "Examination_item":"\uc601\uc720\uc544\uac80\uc9c4", "lat":126.924947, "lon":35.160166},
 {"id":114, "store_name":"\uc6b0\ub9ac\uc544\uc774\uc18c\uc544\uccad\uc18c\ub144\uacfc\uc758\uc6d0", "address":"\uad11\uc8fc\uad11\uc5ed\uc2dc \ub3d9\uad6c \ub0a8\ubb38\ub85c 663 (\ud559\ub3d9)", "phone":"062-225-7575", "Examination_item":"\uc601\uc720\uc544\uac80\uc9c4", "lat":126.929317, "lon":35.129945},
 {"id":115, "store_name":"\uc774\uc0c1\uba85\ub0b4\uacfc\uc758\uc6d0", "address":"\uad11\uc8fc\uad11\uc5ed\uc2dc \ub3d9\uad6c \uc81c\ubd09\ub85c 10 (\ud559\ub3d9)", "phone":"062-232-7675", "Examination_item":"\uc77c\ubc18,\uc554\uac80\uc9c4,\uc601\uc720\uc544\uac80\uc9c4", "lat":126.922699, "lon":35.140036},
 {"id":116, "store_name":"\ud544\uc694\ud55c\uac00\uc815\uc758\ud559\uacfc\uc758\uc6d0", "address":"\uad11\uc8fc\uad11\uc5ed\uc2dc \ub3d9\uad6c \uc758\uc7ac\ub85c 57 (\ud559\ub3d9)", "phone":"062-225-8275", "Examination_item":"\uc601\uc720\uc544\uac80\uc9c4", "lat":126.933936, "lon":35.132483},
 {"id":117, "store_name":"\ud5c8\uacbd\ub0b4\uacfc\uc758\uc6d0", "address":"\uad11\uc8fc\uad11\uc5ed\uc2dc \ub3d9\uad6c \uacbd\uc591\ub85c 282-1 2\uce35 (\uacc4\ub9bc\ub3d9)", "phone":"062-225-3799", "Examination_item":"\uc77c\ubc18,\uc554\uac80\uc9c4,\uc601\uc720\uc544\uac80\uc9c4", "lat":126.920278, "lon":35.154698},
 {"id":118, "store_name":"\ud5c8\uacbd\ub8e1\uc18c\uc544\uacfc\uc758\uc6d0", "address":"\uad11\uc8fc\uad11\uc5ed\uc2dc \ub3d9\uad6c \ub0a8\ubb38\ub85c 758 (\ud559\ub3d9)", "phone":"062-222-5695", "Examination_item":"\uc601\uc720\uc544\uac80\uc9c4", "lat":126.925015, "lon":35.137488},
 {"id":119, "store_name":"\ud5c8\uc6c5\uc774\ube44\uc778\ud6c4\uacfc\uc758\uc6d0", "address":"\uad11\uc8fc\uad11\uc5ed\uc2dc \ub3d9\uad6c \uc911\uc559\ub85c 233 2 3\uce35 (\ub300\uc778\ub3d9)", "phone":"062-223-6673", "Examination_item":"\uc601\uc720\uc544\uac80\uc9c4", "lat":126.918838, "lon":35.153234},
 {"id":120, "store_name":"\ud5c8\uc900\uc774\ube44\uc778\ud6c4\uacfc\uc758\uc6d0", "address":"\uad11\uc8fc\uad11\uc5ed\uc2dc \ub3d9\uad6c \ub3d9\uacc4\ucc9c\ub85c 74 (\uc7a5\ub3d9)", "phone":"062-222-8222", "Examination_item":"\uc601\uc720\uc544\uac80\uc9c4", "lat":126.919248, "lon":35.152904},
 {"id":121, "store_name":"W\ud654\uc774\ud2b8\uce58\uacfc\uc758\uc6d0", "address":"\uad11\uc8fc\uad11\uc5ed\uc2dc \ub3d9\uad6c \ub3d9\uacc4\ucc9c\ub85c 74 (\uc7a5\ub3d9  \uc81c\uc77c\ube4c\ub5293\uce35)", "phone":"062-225-7300", "Examination_item":"\uad6c\uac15\uac80\uc9c4", "lat":126.919248, "lon":35.152904},
 {"id":122, "store_name":"\uace0\uc815\uc11d\uce58\uacfc\uad50\uc815\uacfc\uce58\uacfc\uc758\uc6d0", "address":"\uad11\uc8fc\uad11\uc5ed\uc2dc \ub3d9\uad6c \uae08\ub0a8\ub85c 236 7\uce35 (\uae08\ub0a8\ub85c2\uac00)", "phone":"062-222-1001", "Examination_item":"\uad6c\uac15\uac80\uc9c4", "lat":126.917474, "lon":35.148499},
 {"id":123, "store_name":"\uad11\uc8fc\uba85\ubb38\uce58\uacfc\uc758\uc6d0", "address":"\uad11\uc8fc\uad11\uc5ed\uc2dc \ub3d9\uad6c \ub0a8\ubb38\ub85c 780 3\uce35 302\ud638 (\ud559\ub3d9)", "phone":"062-222-2879", "Examination_item":"\uad6c\uac15\uac80\uc9c4", "lat":126.923557, "lon":35.139061},
 {"id":124, "store_name":"\uae40\ubcd1\ud638\uce58\uacfc\uc758\uc6d0", "address":"\uad11\uc8fc\uad11\uc5ed\uc2dc \ub3d9\uad6c \uc911\uc559\ub85c 358 201\ud638 (\uacc4\ub9bc\ub3d9)", "phone":"062-525-1128", "Examination_item":"\uad6c\uac15\uac80\uc9c4", "lat":126.920221, "lon":35.164},
 {"id":125, "store_name":"\uae40\uce58\uacfc\uc758\uc6d0", "address":"\uad11\uc8fc\uad11\uc5ed\uc2dc \ub3d9\uad6c \uacbd\uc591\ub85c 388 (\uc0b0\uc218\ub3d9)", "phone":"062-224-2828", "Examination_item":"\uad6c\uac15\uac80\uc9c4", "lat":126.931431, "lon":35.154545},
 {"id":126, "store_name":"\ub300\uc778\uce58\uacfc\uc758\uc6d0", "address":"\uad11\uc8fc\uad11\uc5ed\uc2dc \ub3d9\uad6c \uc81c\ubd09\ub85c 196 (\ub300\uc778\ub3d9)", "phone":"062-226-0828", "Examination_item":"\uad6c\uac15\uac80\uc9c4", "lat":126.916156, "lon":35.153535},
 {"id":127, "store_name":"\ub300\uc911\uce58\uacfc\uc758\uc6d0", "address":"\uad11\uc8fc\uad11\uc5ed\uc2dc \ub3d9\uad6c \uc81c\ubd09\ub85c 187 2\uce35 202\ud638 (\ub300\uc778\ub3d9)", "phone":"062-269-2282", "Examination_item":"\uad6c\uac15\uac80\uc9c4", "lat":126.916571, "lon":35.152871},
 {"id":128, "store_name":"\ub3d9\uacbdU\uce58\uacfc\uc758\uc6d0", "address":"\uad11\uc8fc\uad11\uc5ed\uc2dc \ub3d9\uad6c \uac08\ub9c8\ub85c 54 3\uce35 (\uc0b0\uc218\ub3d9)", "phone":"062-266-2828", "Examination_item":"\uad6c\uac15\uac80\uc9c4", "lat":126.936389, "lon":35.161484},
 {"id":129, "store_name":"\ubbf8\ub798\uce58\uacfc\uc758\uc6d0", "address":"\uad11\uc8fc\uad11\uc5ed\uc2dc \ub3d9\uad6c \ub0a8\ubb38\ub85c 689 \ud574\ud53c\ubdf0\uc0bc\uc131\ubcd1\uc6d0 3\uce35 (\ud559\ub3d9)", "phone":"062-714-2825", "Examination_item":"\uad6c\uac15\uac80\uc9c4", "lat":126.928548, "lon":35.131651},
 {"id":130, "store_name":"\ubc14\ub978\uc0dd\uac01\ucc28\uc2b9\ub798\uce58\uacfc\uc758\uc6d0", "address":"\uad11\uc8fc\uad11\uc5ed\uc2dc \ub3d9\uad6c \ubb34\ub4f1\ub85c 386 2\uce35 (\uacc4\ub9bc\ub3d9)", "phone":"062-522-2879", "Examination_item":"\uad6c\uac15\uac80\uc9c4", "lat":126.924947, "lon":35.160166},
 {"id":131, "store_name":"\ubc14\ub978\ud50c\ub780\ud2b8\uce58\uacfc\uc758\uc6d0", "address":"\uad11\uc8fc\uad11\uc5ed\uc2dc \ub3d9\uad6c \ub0a8\ubb38\ub85c 663 3\uce35 (\ud559\ub3d9)", "phone":"062-233-2819", "Examination_item":"\uad6c\uac15\uac80\uc9c4", "lat":126.929317, "lon":35.129945},
 {"id":132, "store_name":"\ubc15\uce58\uacfc\uc758\uc6d0", "address":"\uad11\uc8fc\uad11\uc5ed\uc2dc \ub3d9\uad6c \uc11c\uc11d\ub85c 51 2\uce35 (\uae08\ub0a8\ub85c1\uac00)", "phone":"062-232-2628", "Examination_item":"\uad6c\uac15\uac80\uc9c4", "lat":126.918698, "lon":35.147221},
 {"id":133, "store_name":"\ubd80\ubd80\uce58\uacfc\uc758\uc6d0", "address":"\uad11\uc8fc\uad11\uc5ed\uc2dc \ub3d9\uad6c \ud544\ubb38\ub300\ub85c 174 2\uce35 (\uc0b0\uc218\ub3d9)", "phone":"062-512-3722", "Examination_item":"\uad6c\uac15\uac80\uc9c4", "lat":126.931499, "lon":35.155248},
 {"id":134, "store_name":"\uc0c8\ube5b\uce58\uacfc\uc758\uc6d0", "address":"\uad11\uc8fc\uad11\uc5ed\uc2dc \ub3d9\uad6c \uc6a9\uc0b01\ub85c 12 303 304\ud638 (\uc6a9\uc0b0\ub3d9)", "phone":"062-228-8275", "Examination_item":"\uad6c\uac15\uac80\uc9c4", "lat":126.924191, "lon":35.118389},
 {"id":135, "store_name":"\uc11c\uc815\uce58\uacfc\uc758\uc6d0", "address":"\uad11\uc8fc\uad11\uc5ed\uc2dc \ub3d9\uad6c \ub0a8\ubb38\ub85c 694-7 (\ud559\ub3d9)", "phone":"062-228-0275", "Examination_item":"\uad6c\uac15\uac80\uc9c4", "lat":126.928894, "lon":35.13288},
 {"id":136, "store_name":"\uc548\uce58\uacfc\uc758\uc6d0", "address":"\uad11\uc8fc\uad11\uc5ed\uc2dc \ub3d9\uad6c \uc81c\ubd09\ub85c 84 (\uc11c\uc11d\ub3d9)", "phone":"062-222-2275", "Examination_item":"\uad6c\uac15\uac80\uc9c4", "lat":126.922105, "lon":35.145962},
 {"id":137, "store_name":"\uc591\uce58\uacfc\uc758\uc6d0", "address":"\uad11\uc8fc\uad11\uc5ed\uc2dc \ub3d9\uad6c \uc911\uc559\ub85c 337 (\uacc4\ub9bc\ub3d9)", "phone":"062-524-6279", "Examination_item":"\uad6c\uac15\uac80\uc9c4", "lat":126.920063, "lon":35.161826},
 {"id":138, "store_name":"\uc608\uc778\uc6d0\uce58\uacfc\uc758\uc6d0", "address":"\uad11\uc8fc\uad11\uc5ed\uc2dc \ub3d9\uad6c \uc911\uc559\ub85c 191-1 (\uae08\ub0a8\ub85c4\uac00)", "phone":"062-232-8275", "Examination_item":"\uad6c\uac15\uac80\uc9c4", "lat":126.915646, "lon":35.150628},
 {"id":139, "store_name":"\uc720\ub514\uce58\uacfc\uc758\uc6d0", "address":"\uad11\uc8fc\uad11\uc5ed\uc2dc \ub3d9\uad6c \ub0a8\ubb38\ub85c 694-10   \ub0a8\ubb38\ub85c 686  2\uce35 (\ud559\ub3d9)", "phone":"062-222-4600", "Examination_item":"\uad6c\uac15\uac80\uc9c4", "lat":126.929042, "lon":35.132458},
 {"id":140, "store_name":"\uc774\uc131\ucd9c\uce58\uacfc\uc758\uc6d0", "address":"\uad11\uc8fc\uad11\uc5ed\uc2dc \ub3d9\uad6c \uc911\uc559\ub85c 194 (\uae08\ub0a8\ub85c3\uac00)", "phone":"062-232-5221", "Examination_item":"\uad6c\uac15\uac80\uc9c4", "lat":126.916054, "lon":35.150433},
 {"id":141, "store_name":"\uc784\uae08\uce58\uacfc\uc758\uc6d0", "address":"\uad11\uc8fc\uad11\uc5ed\uc2dc \ub3d9\uad6c \uc911\uc559\ub85c 173 (\ucda9\uc7a5\ub85c4\uac00)", "phone":"062-223-9727", "Examination_item":"\uad6c\uac15\uac80\uc9c4", "lat":126.914103, "lon":35.149424},
 {"id":142, "store_name":"\uc7a5\uae30\uc601\uce58\uacfc\uc758\uc6d0", "address":"\uad11\uc8fc\uad11\uc5ed\uc2dc \ub3d9\uad6c \uad6c\uc131\ub85c 168 (\ucda9\uc7a5\ub85c5\uac00)", "phone":"062-223-2875", "Examination_item":"\uad6c\uac15\uac80\uc9c4", "lat":126.912137, "lon":35.151236},
 {"id":143, "store_name":"\uc804\uc0c1\uc6b4\uce58\uacfc\uc758\uc6d0", "address":"\uad11\uc8fc\uad11\uc5ed\uc2dc \ub3d9\uad6c \ubc24\uc2e4\ub85c 147 (\uc0b0\uc218\ub3d9)", "phone":"062-268-0220", "Examination_item":"\uad6c\uac15\uac80\uc9c4", "lat":126.934127, "lon":35.159923},
 {"id":144, "store_name":"\uc804\uc2b9\ubc94\uce58\uacfc\uc758\uc5b8", "address":"\uad11\uc8fc\uad11\uc5ed\uc2dc \ub3d9\uad6c \uc9c0\uc0b0\ub85c 90 (\uc9c0\uc0b0\ub3d9)", "phone":"062-222-7502", "Examination_item":"\uad6c\uac15\uac80\uc9c4", "lat":126.933279, "lon":35.151668},
 {"id":145, "store_name":"\uc815\uc564\uc591\uce58\uacfc\uc758\uc6d0", "address":"\uad11\uc8fc\uad11\uc5ed\uc2dc \ub3d9\uad6c \uac08\ub9c8\ub85c 58 3\uce35 (\uc0b0\uc218\ub3d9)", "phone":"062-251-2808", "Examination_item":"\uad6c\uac15\uac80\uc9c4", "lat":126.936827, "lon":35.161551},
 {"id":146, "store_name":"\uc81c\uc77c\uce58\uacfc\uc758\uc6d0", "address":"\uad11\uc8fc\uad11\uc5ed\uc2dc \ub3d9\uad6c \ubc24\uc2e4\ub85c 47 2\uce35 (\uc9c0\uc0b0\ub3d9)", "phone":"062-222-7528", "Examination_item":"\uad6c\uac15\uac80\uc9c4", "lat":126.936417, "lon":35.151776},
 {"id":147, "store_name":"\uc870\uc120\ub300\ud559\uad50\uce58\uacfc\ubcd1\uc6d0", "address":"\uad11\uc8fc\uad11\uc5ed\uc2dc \ub3d9\uad6c \ud544\ubb38\ub300\ub85c 303 (\uc11c\uc11d\ub3d9  \uc870\uc120\ub300\ud559\uad50\ubd80\uc18d\uce58\uacfc\ubcd1\uc6d0)", "phone":"062-220-3807", "Examination_item":"\uad6c\uac15\uac80\uc9c4", "lat":126.926767, "lon":35.144489},
 {"id":148, "store_name":"\uc870\uc9c4\uc6b0\uce58\uacfc\uc758\uc6d0", "address":"\uad11\uc8fc\uad11\uc5ed\uc2dc \ub3d9\uad6c \uae08\ub0a8\ub85c 162-1 (\uae08\ub0a8\ub85c5\uac00)", "phone":"062-233-2875", "Examination_item":"\uad6c\uac15\uac80\uc9c4", "lat":126.911206, "lon":35.152688},
 {"id":149, "store_name":"\uc9c0\uc0b0\uce58\uacfc\uc758\uc6d0", "address":"\uad11\uc8fc\uad11\uc5ed\uc2dc \ub3d9\uad6c \uc9c0\uc0b0\ub85c 48 (\uc9c0\uc0b0\ub3d9)", "phone":"062-225-4828", "Examination_item":"\uad6c\uac15\uac80\uc9c4", "lat":126.932571, "lon":35.147939},
 {"id":150, "store_name":"\ucd5c\uc601\uc6b1\uce58\uacfc\uc758\uc6d0", "address":"\uad11\uc8fc\uad11\uc5ed\uc2dc \ub3d9\uad6c \uae08\ub0a8\ub85c 238 5\uce35 (\uae08\ub0a8\ub85c2\uac00  \ubb34\ub4f1\ube4c\ub529)", "phone":"062-232-2275", "Examination_item":"\uad6c\uac15\uac80\uc9c4", "lat":126.917619, "lon":35.148275},
 {"id":151, "store_name":"\ucf54\uc2a4\ucf54\uc2a4\uce58\uacfc\uc758\uc6d0", "address":"\uad11\uc8fc\uad11\uc5ed\uc2dc \ub3d9\uad6c \uac08\ub9c8\ub85c 2 (\uc0b0\uc218\ub3d9)", "phone":"062-263-0028", "Examination_item":"\uad6c\uac15\uac80\uc9c4", "lat":126.93116, "lon":35.160131},
 {"id":152, "store_name":"\ud55c\ube5b\uce58\uacfc\uc758\uc6d0", "address":"\uad11\uc8fc\uad11\uc5ed\uc2dc \ub3d9\uad6c \uc81c\ubd09\ub85c 106 2\uce35 (\uc7a5\ub3d9)", "phone":"062-222-0283", "Examination_item":"\uad6c\uac15\uac80\uc9c4", "lat":126.922115, "lon":35.147765},
 {"id":153, "store_name":"\uad11\uc8fc\uae30\ub3c5\ubcd1\uc6d0", "address":"\uad11\uc8fc\uad11\uc5ed\uc2dc \ub0a8\uad6c \uc591\ub9bc\ub85c 37 (\uc591\ub9bc\ub3d9)", "phone":"062-650-5570", "Examination_item":"\uc77c\ubc18,\uc554\uac80\uc9c4,\uad6c\uac15\uac80\uc9c4,\uc601\uc720\uc544\uac80\uc9c4", "lat":126.912045, "lon":35.136678},
 {"id":154, "store_name":"\uad11\uc8fc\uc528\ud2f0\ubcd1\uc6d0", "address":"\uad11\uc8fc\uad11\uc5ed\uc2dc \ub0a8\uad6c \uc11c\ubb38\ub300\ub85c654\ubc88\uae38 5 (\uc9c4\uc6d4\ub3d9)", "phone":"062-460-7577", "Examination_item":"\uc77c\ubc18,\uc554\uac80\uc9c4,\uc601\uc720\uc544\uac80\uc9c4,\ud559\uad50\ubc16\uccad\uc18c\ub144\uac80\uc9c4", "lat":126.899494, "lon":35.117735},
 {"id":155, "store_name":"\uad7f\ubaa8\ub2dd\uc18c\uc544\uccad\uc18c\ub144\uacfc\uc758\uc6d0", "address":"\uad11\uc8fc\uad11\uc5ed\uc2dc \ub0a8\uad6c \ud6a8\ucc9c\uc911\uc559\ub85c 64 3\uce35 (\uc784\uc554\ub3d9)", "phone":"062-672-7179", "Examination_item":"\uc601\uc720\uc544\uac80\uc9c4", "lat":126.875585, "lon":35.10212},
 {"id":156, "store_name":"\uae40\uac15\ud638\uc18c\uc544\uccad\uc18c\ub144\uacfc\uc758\uc6d0", "address":"\uad11\uc8fc\uad11\uc5ed\uc2dc \ub0a8\uad6c \ubd09\uc120\uc911\uc559\ub85c 86 (\ubd09\uc120\ub3d9)", "phone":"062-672-9593", "Examination_item":"\uc601\uc720\uc544\uac80\uc9c4", "lat":126.911219, "lon":35.128675},
 {"id":157, "store_name":"\ub9ac\ub9ac\uc18c\uc544\uccad\uc18c\ub144\uacfc\uc758\uc6d0", "address":"\uad11\uc8fc\uad11\uc5ed\uc2dc \ub0a8\uad6c \ud6a8\uc6b02\ub85c 34 2\uce35 (\ud589\uc554\ub3d9)", "phone":"062-675-1700", "Examination_item":"\uc601\uc720\uc544\uac80\uc9c4", "lat":126.888345, "lon":35.101823},
 {"id":158, "store_name":"\ubaa8\uc544\uc0b0\ubd80\uc778\uacfc\ubcd1\uc6d0", "address":"\uad11\uc8fc\uad11\uc5ed\uc2dc \ub0a8\uad6c \ubc31\uc591\ub85c 13 (\ubc31\uc6b4\ub3d9  \ubaa8\uc544\uc0b0\ubd80\uc778\uacfc)", "phone":"062-670-7700", "Examination_item":"\uc554\uac80\uc9c4,\uc601\uc720\uc544\uac80\uc9c4", "lat":126.903424, "lon":35.133968},
 {"id":159, "store_name":"\ubbf8\ub798\uc544\ub3d9\ubcd1\uc6d0", "address":"\uad11\uc8fc\uad11\uc5ed\uc2dc \ub0a8\uad6c \ub300\ub0a8\ub300\ub85c 131 (\uc8fc\uc6d4\ub3d9)", "phone":"062-600-2531", "Examination_item":"\uc601\uc720\uc544\uac80\uc9c4", "lat":126.910702, "lon":35.133682},
 {"id":160, "store_name":"\ubd09\uc120\ub4dc\ub9bc\uc18c\uc544\uccad\uc18c\ub144\uacfc\uc758\uc6d0", "address":"\uad11\uc8fc\uad11\uc5ed\uc2dc \ub0a8\uad6c \uc81c\uc11d\ub85c 104 202\ub3d9 4\uce35 401\ud638 (\ubd09\uc120\ub3d9)", "phone":"062-673-0125", "Examination_item":"\uc601\uc720\uc544\uac80\uc9c4", "lat":126.907476, "lon":35.123819},
 {"id":161, "store_name":"\uc0ac\ub2e8\ubc95\uc778\uc778\uad6c\ubcf4\uac74\ubcf5\uc9c0\ud611\ud68c\uad11\uc8fc\uc804\ub0a8\uc9c0\ud68c\uac00\uc871\ubcf4\uac74\uc758\uc6d0", "address":"\uad11\uc8fc\uad11\uc5ed\uc2dc \ub0a8\uad6c \uc11c\ubb38\ub300\ub85c 816 3\uce35 (\uc8fc\uc6d4\ub3d9)", "phone":"062-670-4000", "Examination_item":"\uc77c\ubc18,\uc554\uac80\uc9c4,\uc601\uc720\uc544\uac80\uc9c4,\ud559\uad50\ubc16\uccad\uc18c\ub144\uac80\uc9c4", "lat":126.900541, "lon":35.131319},
 {"id":162, "store_name":"\uc194\uac00\uc815\uc758\ud559\uacfc\uc758\uc6d0", "address":"\uad11\uc8fc\uad11\uc5ed\uc2dc \ub0a8\uad6c \ud6a8\uc6b0\ub85c 85 202\ud638 (\ub178\ub300\ub3d9  \ub9c8\uce58\ud504\ub77c\uc790)", "phone":"062-682-0771", "Examination_item":"\uc601\uc720\uc544\uac80\uc9c4", "lat":126.904601, "lon":35.105856},
 {"id":163, "store_name":"\uc544\uc774\uc6d0\uc18c\uc544\uccad\uc18c\ub144\uacfc\uc758\uc6d0", "address":"\uad11\uc8fc\uad11\uc5ed\uc2dc \ub0a8\uad6c \ud6a8\ucc9c2\ub85c\uac00\uae38 11-1 (\uc784\uc554\ub3d9)", "phone":"062-676-7800", "Examination_item":"\uc601\uc720\uc544\uac80\uc9c4", "lat":126.874447, "lon":35.101929},
 {"id":164, "store_name":"\uc608\uc0ac\ub791\uc544\ub3d9\ubcd1\uc6d0", "address":"\uad11\uc8fc\uad11\uc5ed\uc2dc \ub0a8\uad6c \uc11c\ubb38\ub300\ub85c 683 (\uc9c4\uc6d4\ub3d9)", "phone":"062-455-1000", "Examination_item":"\uc601\uc720\uc544\uac80\uc9c4", "lat":126.898609, "lon":35.119962},
 {"id":165, "store_name":"\uc774\ub355\uc6c5\uc18c\uc544\uccad\uc18c\ub144\uacfc\uc758\uc6d0", "address":"\uad11\uc8fc\uad11\uc5ed\uc2dc \ub0a8\uad6c \ub3c5\ub9bd\ub85c 104 (\ubc31\uc6b4\ub3d9)", "phone":"062-651-6636", "Examination_item":"\uc601\uc720\uc544\uac80\uc9c4", "lat":126.903218, "lon":35.142782},
 {"id":166, "store_name":"\uc9c4\uc6d4\uc5f0\ud569\uc18c\uc544\uccad\uc18c\ub144\uacfc\uc758\uc6d0", "address":"\uad11\uc8fc\uad11\uc5ed\uc2dc \ub0a8\uad6c \ud6a8\uc6b0\ub85c 79 2\uce35 (\ub178\ub300\ub3d9)", "phone":"062-674-8575", "Examination_item":"\uc601\uc720\uc544\uac80\uc9c4", "lat":126.904648, "lon":35.10646},
 {"id":167, "store_name":"\ud558\uc774\uc18c\uc544\uccad\uc18c\ub144\uacfc\uc758\uc6d0", "address":"\uad11\uc8fc\uad11\uc5ed\uc2dc \ub0a8\uad6c \ubd09\uc1202\ub85c 81 2\uce35 (\ubd09\uc120\ub3d9)", "phone":"062-672-7559", "Examination_item":"\uc601\uc720\uc544\uac80\uc9c4", "lat":126.915246, "lon":35.126124},
 {"id":168, "store_name":"\uacf0\ub3cc\uc774\uc18c\uc544\uce58\uacfc\uc758\uc6d0", "address":"\uad11\uc8fc\uad11\uc5ed\uc2dc \ub0a8\uad6c \ud6a8\ucc9c\uc911\uc559\ub85c 64 3\uce35 303\ud638 (\uc784\uc554\ub3d9)", "phone":"062-655-2279", "Examination_item":"\uad6c\uac15\uac80\uc9c4", "lat":126.875585, "lon":35.10212},
 {"id":169, "store_name":"\uad11\uc8fc\uc528\ud2f0\uce58\uacfc\uc758\uc6d0", "address":"\uad11\uc8fc\uad11\uc5ed\uc2dc \ub0a8\uad6c \uc11c\ubb38\ub300\ub85c654\ubc88\uae38 5 2\uce35 (\uc9c4\uc6d4\ub3d9)", "phone":"062-460-7528", "Examination_item":"\uad6c\uac15\uac80\uc9c4,\ud559\uad50\ubc16\uccad\uc18c\ub144\uac80\uc9c4", "lat":126.899494, "lon":35.117735},
 {"id":170, "store_name":"\uad11\uc8fc\uc6f0\uce58\uacfc\uc758\uc6d0", "address":"\uad11\uc8fc\uad11\uc5ed\uc2dc \ub0a8\uad6c \ubd09\uc1202\ub85c 49 4\uce35 (\ubd09\uc120\ub3d9)", "phone":"062-655-7528", "Examination_item":"\uad6c\uac15\uac80\uc9c4", "lat":126.911749, "lon":35.125958},
 {"id":171, "store_name":"\uae40\uad11\uc218\uce58\uacfc\uc758\uc6d0", "address":"\uad11\uc8fc\uad11\uc5ed\uc2dc \ub0a8\uad6c \uc11c\ubb38\ub300\ub85c 661 (\uc9c4\uc6d4\ub3d9)", "phone":"062-676-7528", "Examination_item":"\uad6c\uac15\uac80\uc9c4", "lat":126.89854, "lon":35.118519},
 {"id":172, "store_name":"\uae40\uc0c1\ud0dc\uce58\uacfc\uc758\uc6d0", "address":"\uad11\uc8fc\uad11\uc5ed\uc2dc \ub0a8\uad6c \ub300\ub0a8\ub300\ub85c 291-1 (\uc6d4\uc0b0\ub3d9)", "phone":"062-362-0777", "Examination_item":"\uad6c\uac15\uac80\uc9c4", "lat":126.89563, "lon":35.138233},
 {"id":173, "store_name":"\uae40\uc131\uad8c\uce58\uacfc\uc758\uc6d0", "address":"\uad11\uc8fc\uad11\uc5ed\uc2dc \ub0a8\uad6c \ubd09\uc120\uc911\uc559\ub85c 139 (\uc8fc\uc6d4\ub3d9)", "phone":"062-672-7500", "Examination_item":"\uad6c\uac15\uac80\uc9c4", "lat":126.91032, "lon":35.133562},
 {"id":174, "store_name":"\uae40\uc608\ub780\uce58\uacfc\uc758\uc6d0", "address":"\uad11\uc8fc\uad11\uc5ed\uc2dc \ub0a8\uad6c \ubc29\ub9bc\ub85c 31 205\ud638 (\ubc29\ub9bc\ub3d9  \ud734\uba3c\uc2dc\uc544\uc544\ud30c\ud2b8\uc0c1\uac00)", "phone":"062-653-2870", "Examination_item":"\uad6c\uac15\uac80\uc9c4", "lat":126.920027, "lon":35.135505},
 {"id":175, "store_name":"\uae40\uc885\uae30\uce58\uacfc\uc758\uc6d0", "address":"\uad11\uc8fc\uad11\uc5ed\uc2dc \ub0a8\uad6c \ud3ec\ucda9\ub85c 598 1\uce35 (\uc9c0\uc11d\ub3d9)", "phone":"062-371-0275", "Examination_item":"\uad6c\uac15\uac80\uc9c4", "lat":126.834827, "lon":35.081363},
 {"id":176, "store_name":"\ub178\ub300\uc6b0\ub9ac\uce58\uacfc\uc758\uc6d0", "address":"\uad11\uc8fc\uad11\uc5ed\uc2dc \ub0a8\uad6c \ub178\ub300\uc2e4\ub85c 38 201\ud638 (\ub178\ub300\ub3d9  \uc5f0\uc131\ube4c\ub529)", "phone":"062-651-2278", "Examination_item":"\uad6c\uac15\uac80\uc9c4", "lat":126.906065, "lon":35.106265},
 {"id":177, "store_name":"\ub204\ub9ac\uce58\uacfc\uc758\uc6d0", "address":"\uad11\uc8fc\uad11\uc5ed\uc2dc \ub0a8\uad6c \ubd09\uc120\uc911\uc559\ub85c 93 201\ud638 (\ubd09\uc120\ub3d9  \ub77c\uc778\uad11\uc7a5 \uc0c1\uac00)", "phone":"062-651-2875", "Examination_item":"\uad6c\uac15\uac80\uc9c4", "lat":126.910837, "lon":35.129339},
 {"id":178, "store_name":"\ub2e4\ubbfc\uce58\uacfc\uc758\uc6d0", "address":"\uad11\uc8fc\uad11\uc5ed\uc2dc \ub0a8\uad6c \uc11c\ubb38\ub300\ub85c 691 4\uce35 (\uc9c4\uc6d4\ub3d9)", "phone":"062-651-2855", "Examination_item":"\uad6c\uac15\uac80\uc9c4", "lat":126.898474, "lon":35.121042},
 {"id":179, "store_name":"\ub300\uc131\uce58\uacfc\uc758\uc6d0", "address":"\uad11\uc8fc\uad11\uc5ed\uc2dc \ub0a8\uad6c \uc911\uc559\ub85c 60-1 2\uce35 (\uc11c\ub3d9)", "phone":"062-673-2875", "Examination_item":"\uad6c\uac15\uac80\uc9c4", "lat":126.904977, "lon":35.143339},
 {"id":180, "store_name":"\ub300\ud559\uce58\uacfc\uc758\uc6d0", "address":"\uad11\uc8fc\uad11\uc5ed\uc2dc \ub0a8\uad6c \uc11c\ubb38\ub300\ub85c 670 4\uce35 (\uc9c4\uc6d4\ub3d9)", "phone":"062-268-0005", "Examination_item":"\uad6c\uac15\uac80\uc9c4", "lat":126.899342, "lon":35.119284},
 {"id":181, "store_name":"\ub3d9\uc2e0\uce58\uacfc\uc758\uc6d0", "address":"\uad11\uc8fc\uad11\uc5ed\uc2dc \ub0a8\uad6c \uc6d4\uc0b0\ub85c 141 1\uce35 (\uc6d4\uc0b0\ub3d9)", "phone":"062-365-2879", "Examination_item":"\uad6c\uac15\uac80\uc9c4", "lat":126.895808, "lon":35.15025},
 {"id":182, "store_name":"\ub3d9\uc544\ubc14\ub978\uc774\uce58\uacfc\uc758\uc6d0", "address":"\uad11\uc8fc\uad11\uc5ed\uc2dc \ub0a8\uad6c \ub300\ub0a8\ub300\ub85c 238 3\uce35 (\ubc31\uc6b4\ub3d9)", "phone":"062-654-2822", "Examination_item":"\uad6c\uac15\uac80\uc9c4", "lat":126.899892, "lon":35.134702},
 {"id":183, "store_name":"\ub4dc\ub9bc\uce58\uacfc\uc758\uc6d0", "address":"\uad11\uc8fc\uad11\uc5ed\uc2dc \ub0a8\uad6c \uad11\ubcf5\ub9c8\uc7444\uae38 11 2\uce35 (\uc9c4\uc6d4\ub3d9)", "phone":"062-361-2875", "Examination_item":"\uad6c\uac15\uac80\uc9c4", "lat":126.89655, "lon":35.120502},
 {"id":184, "store_name":"\ub514\uc790\uc778\uce58\uacfc\uc758\uc6d0", "address":"\uad11\uc8fc\uad11\uc5ed\uc2dc \ub0a8\uad6c \uc6a9\ub300\ub85c 208 3\uce35 (\ubc29\ub9bc\ub3d9)", "phone":"062-671-2800", "Examination_item":"\uad6c\uac15\uac80\uc9c4,\ud559\uad50\ubc16\uccad\uc18c\ub144\uac80\uc9c4", "lat":126.917348, "lon":35.134751},
 {"id":185, "store_name":"\ub798\ubbf8\uc548\uce58\uacfc\uc758\uc6d0", "address":"\uad11\uc8fc\uad11\uc5ed\uc2dc \ub0a8\uad6c \uc11c\ubb38\ub300\ub85c 741 2\uce35 (\uc8fc\uc6d4\ub3d9)", "phone":"062-673-2828", "Examination_item":"\uad6c\uac15\uac80\uc9c4", "lat":126.897404, "lon":35.125513},
 {"id":186, "store_name":"\ub9c8\uc74c\uc560\uce58\uacfc\uc758\uc6d0", "address":"\uad11\uc8fc\uad11\uc5ed\uc2dc \ub0a8\uad6c \ubd09\uc120\uc911\uc559\ub85c 94 2\uce35 (\ubd09\uc120\ub3d9)", "phone":"062-676-0123", "Examination_item":"\uad6c\uac15\uac80\uc9c4", "lat":126.911134, "lon":35.129296},
 {"id":187, "store_name":"\ub9d1\uc740\uc0d8\uce58\uacfc\uc758\uc6d0", "address":"\uad11\uc8fc\uad11\uc5ed\uc2dc \ub0a8\uad6c \uc11c\ubb38\ub300\ub85c 700 2\uce35 (\uc9c4\uc6d4\ub3d9)", "phone":"062-651-2288", "Examination_item":"\uad6c\uac15\uac80\uc9c4", "lat":126.899012, "lon":35.121805},
 {"id":188, "store_name":"\ubbf8\ub798\uc544\ub3d9\uce58\uacfc\uc758\uc6d0", "address":"\uad11\uc8fc\uad11\uc5ed\uc2dc \ub0a8\uad6c \ub300\ub0a8\ub300\ub85c 131 (\uc8fc\uc6d4\ub3d9)", "phone":"062-672-2543", "Examination_item":"\uad6c\uac15\uac80\uc9c4", "lat":126.910702, "lon":35.133682},
 {"id":189, "store_name":"\ubbfc\uce58\uacfc\uc758\uc6d0", "address":"\uad11\uc8fc\uad11\uc5ed\uc2dc \ub0a8\uad6c \ub300\ub0a8\ub300\ub85c 57 4\uce35 (\ubc29\ub9bc\ub3d9)", "phone":"062-233-0075", "Examination_item":"\uad6c\uac15\uac80\uc9c4", "lat":126.918454, "lon":35.135762},
 {"id":190, "store_name":"\ubc15\uc0c1\uc724\uce58\uacfc\uc758\uc6d0", "address":"\uad11\uc8fc\uad11\uc5ed\uc2dc \ub0a8\uad6c \uc11c\ubb38\ub300\ub85c 764 201\ud638 (\uc8fc\uc6d4\ub3d9)", "phone":"062-673-1144", "Examination_item":"\uad6c\uac15\uac80\uc9c4", "lat":126.898092, "lon":35.127385},
 {"id":191, "store_name":"\ubc1d\uc740\uce58\uacfc\uc758\uc6d0", "address":"\uad11\uc8fc\uad11\uc5ed\uc2dc \ub0a8\uad6c \uc11c\ubb38\ub300\ub85c701\ubc88\uae38 21 (\uc9c4\uc6d4\ub3d9)", "phone":"062-653-0285", "Examination_item":"\uad6c\uac15\uac80\uc9c4", "lat":126.896891, "lon":35.121217},
 {"id":192, "store_name":"\ubca0\uc2a4\ud2b8\ud544\uce58\uacfc\uc758\uc6d0", "address":"\uad11\uc8fc\uad11\uc5ed\uc2dc \ub0a8\uad6c \uc11c\ubb38\ub300\ub85c 686 2\uce35 (\uc9c4\uc6d4\ub3d9)", "phone":"062-369-0011", "Examination_item":"\uad6c\uac15\uac80\uc9c4,\ud559\uad50\ubc16\uccad\uc18c\ub144\uac80\uc9c4", "lat":126.899151, "lon":35.120418},
 {"id":193, "store_name":"\ubd09\uc120e\uce58\uacfc\uc758\uc6d0", "address":"\uad11\uc8fc\uad11\uc5ed\uc2dc \ub0a8\uad6c \ubd09\uc120\ub85c 184 2\uce35 (\ubd09\uc120\ub3d9)", "phone":"062-655-2888", "Examination_item":"\uad6c\uac15\uac80\uc9c4", "lat":126.915213, "lon":35.12287},
 {"id":194, "store_name":"\ubd09\uc120\uc0ac\ub791\uce58\uacfc\uc758\uc6d0", "address":"\uad11\uc8fc\uad11\uc5ed\uc2dc \ub0a8\uad6c \ubd09\uc1201\ub85c 122 2\uce35 (\ubd09\uc120\ub3d9)", "phone":"062-672-1900", "Examination_item":"\uad6c\uac15\uac80\uc9c4", "lat":126.918081, "lon":35.127511},
 {"id":195, "store_name":"\ubd09\uc120\uc5f0\ud569\uce58\uacfc\uc758\uc6d0", "address":"\uad11\uc8fc\uad11\uc5ed\uc2dc \ub0a8\uad6c \ubd09\uc120\ub85c 55 201\ub3d9 2\uce35 (\uc8fc\uc6d4\ub3d9  \uc774\uc9c0\ub354\uc6d0\uc544\ud30c\ud2b8\uc0c1\uac00)", "phone":"062-675-2872", "Examination_item":"\uad6c\uac15\uac80\uc9c4", "lat":126.904799, "lon":35.128789},
 {"id":196, "store_name":"\ube0c\ub2c8\uc5d8\uce58\uacfc\uc758\uc6d0", "address":"\uad11\uc8fc\uad11\uc5ed\uc2dc \ub0a8\uad6c \ub300\ub0a8\ub300\ub85c 368 2\uce35 (\uc6d4\uc0b0\ub3d9)", "phone":"062-351-2752", "Examination_item":"\uad6c\uac15\uac80\uc9c4", "lat":126.891895, "lon":35.144274},
 {"id":197, "store_name":"\ube5b\uace0\uc744\uce58\uacfc\uc758\uc6d0", "address":"\uad11\uc8fc\uad11\uc5ed\uc2dc \ub0a8\uad6c \ub3c5\ub9bd\ub85c 8 2\uce35 (\ubc31\uc6b4\ub3d9  \ubc31\uc6b4\uc694\uc591\ubcd1\uc6d0)", "phone":"062-675-2080", "Examination_item":"\uad6c\uac15\uac80\uc9c4", "lat":126.901729, "lon":35.134313},
 {"id":198, "store_name":"\uc0ac\ub791e\uce58\uacfc\uc758\uc6b4", "address":"\uad11\uc8fc\uad11\uc5ed\uc2dc \ub0a8\uad6c \ud68c\uc7ac\ub85c1186\ubc88\uae38 17 (\uc8fc\uc6d4\ub3d9)", "phone":"062-654-2827", "Examination_item":"\uad6c\uac15\uac80\uc9c4", "lat":126.891744, "lon":35.130283},
 {"id":199, "store_name":"\uc0ac\ub791\uc73c\ub85c\uce58\uacfc\uc758\uc6d0", "address":"\uad11\uc8fc\uad11\uc5ed\uc2dc \ub0a8\uad6c \ub300\ub0a8\ub300\ub85c 338 4\uce35 (\uc6d4\uc0b0\ub3d9)", "phone":"062-364-7528", "Examination_item":"\uad6c\uac15\uac80\uc9c4", "lat":126.893682, "lon":35.141938},
 {"id":200, "store_name":"\uc0b4\uad6c\ub098\ubb34\uce58\uacfc\uc758\uc6d0", "address":"\uad11\uc8fc\uad11\uc5ed\uc2dc \ub0a8\uad6c \uc11c\ubb38\ub300\ub85c 777 4\uce35 (\uc8fc\uc6d4\ub3d9)", "phone":"062-575-2804", "Examination_item":"\uad6c\uac15\uac80\uc9c4", "lat":126.897205, "lon":35.128855},
 {"id":201, "store_name":"\uc120\ud50c\ub780\ud2b8\uce58\uacfc\uc758\uc6d0", "address":"\uad11\uc8fc\uad11\uc5ed\uc2dc \ub0a8\uad6c \uae08\ud654\ub85c 403 4\uce35 401\ud638 (\uc6d4\uc0b0\ub3d9)", "phone":"062-267-2875", "Examination_item":"\uad6c\uac15\uac80\uc9c4", "lat":126.889345, "lon":35.142899},
 {"id":202, "store_name":"\uc18c\ub098\ubb34\uce58\uacfc\uc758\uc6d0", "address":"\uad11\uc8fc\uad11\uc5ed\uc2dc \ub0a8\uad6c \ud6a8\uc6b0\ub85c 79 302\ud638 (\ub178\ub300\ub3d9  \uc9c4\uc6d4\uba54\ub514\ud504\ub77c\uc790)", "phone":"062-675-2882", "Examination_item":"\uad6c\uac15\uac80\uc9c4", "lat":126.904648, "lon":35.10646},
 {"id":203, "store_name":"\uc2a4\ub9c8\uc77c\uce58\uacfc\uc758\uc6d0", "address":"\uad11\uc8fc\uad11\uc5ed\uc2dc \ub0a8\uad6c \ud6a8\uc6b02\ub85c 34 3\uce35 301\ud638 (\ud589\uc554\ub3d9)", "phone":"062-654-7528", "Examination_item":"\uad6c\uac15\uac80\uc9c4", "lat":126.888345, "lon":35.101823},
 {"id":204, "store_name":"\uc2a4\ub9c8\ud2b8\uce58\uacfc\uc758\uc6d0", "address":"\uad11\uc8fc\uad11\uc5ed\uc2dc \ub0a8\uad6c \ubd09\uc120\uc911\uc559\ub85c 51 3\uce35 303\ud638 (\ubd09\uc120\ub3d9)", "phone":"062-675-7779", "Examination_item":"\uad6c\uac15\uac80\uc9c4", "lat":126.91112, "lon":35.125411},
 {"id":205, "store_name":"\uc544\ub984\ub2e4\uc6b4e\uce58\uacfc\uad50\uc815\uacfc\uce58\uacfc\uc758\uc6d0", "address":"\uad11\uc8fc\uad11\uc5ed\uc2dc \ub0a8\uad6c \uc81c\uc11d\ub85c 104 202\ub3d9 7\uce35 701\ud638 (\ubd09\uc120\ub3d9)", "phone":"062-675-2879", "Examination_item":"\uad6c\uac15\uac80\uc9c4", "lat":126.907476, "lon":35.123819},
 {"id":206, "store_name":"\uc591\ub9bc\uce58\uacfc\uc758\uc6d0", "address":"\uad11\uc8fc\uad11\uc5ed\uc2dc \ub0a8\uad6c \uc591\ub9bc\ub85c 54 2\uce35 (\uc591\ub9bc\ub3d9)", "phone":"062-418-2875", "Examination_item":"\uad6c\uac15\uac80\uc9c4", "lat":126.914783, "lon":35.137054},
 {"id":207, "store_name":"\uc5d8\uce58\uacfc\uc758\uc6d0", "address":"\uad11\uc8fc\uad11\uc5ed\uc2dc \ub0a8\uad6c \uc11c\ubb38\ub300\ub85c 665 4\uce35 401\ud638 (\uc9c4\uc6d4\ub3d9  \uae30\ud638\ube4c\ub529)", "phone":"062-654-2875", "Examination_item":"\uad6c\uac15\uac80\uc9c4", "lat":126.898644, "lon":35.118953},
 {"id":208, "store_name":"\uc5f0\uc138\uc218\uce58\uacfc\uc758\uc6d0", "address":"\uad11\uc8fc\uad11\uc5ed\uc2dc \ub0a8\uad6c \uae08\ub2f9\ub85c 16 3\uce35 (\uc9c4\uc6d4\ub3d9)", "phone":"062-672-2875", "Examination_item":"\uad6c\uac15\uac80\uc9c4", "lat":126.896534, "lon":35.118465},
 {"id":209, "store_name":"\uc624\uc815\uc11d\uce58\uacfc\uc758\uc6d0", "address":"\uad11\uc8fc\uad11\uc5ed\uc2dc \ub0a8\uad6c \ud6a8\uc6b02\ub85c 26 3\uce35 (\ud589\uc554\ub3d9)", "phone":"062-676-2882", "Examination_item":"\uad6c\uac15\uac80\uc9c4", "lat":126.889331, "lon":35.101958},
 {"id":210, "store_name":"\uc704\uc0dd\uce58\uacfc\uc758\uc6d0", "address":"\uad11\uc8fc\uad11\uc5ed\uc2dc \ub0a8\uad6c \uc11c\ubb38\ub300\ub85c 811 \uc0bc\uc721\ube4c\ub529 3\uce35 (\uc8fc\uc6d4\ub3d9)", "phone":"062-675-8100", "Examination_item":"\uad6c\uac15\uac80\uc9c4", "lat":126.899002, "lon":35.131539},
 {"id":211, "store_name":"\uc740\uc11d\uce58\uacfc\uc758\uc6d0", "address":"\uad11\uc8fc\uad11\uc5ed\uc2dc \ub0a8\uad6c \ub300\ub0a8\ub300\ub85c 344 (\uc6d4\uc0b0\ub3d9)", "phone":"062-368-7528", "Examination_item":"\uad6c\uac15\uac80\uc9c4", "lat":126.893215, "lon":35.142366},
 {"id":212, "store_name":"\uc774-\ud074\ub9b0\uce58\uacfc\uc758\uc6d0", "address":"\uad11\uc8fc\uad11\uc5ed\uc2dc \ub0a8\uad6c \uc11c\ubb38\ub300\ub85c701\ubc88\uae38 2 304\ud638 (\uc9c4\uc6d4\ub3d9  \ub125\uc2a4\ud0c0\uc6cc)", "phone":"062-681-2875", "Examination_item":"\uad6c\uac15\uac80\uc9c4", "lat":126.898119, "lon":35.122139},
 {"id":213, "store_name":"\uc774\ub4dc\ub9bc\uce58\uacfc\uc758\uc6d0", "address":"\uad11\uc8fc\uad11\uc5ed\uc2dc \ub0a8\uad6c \ud6a8\ucc9c2\ub85c 28 4\uce35 403\ud638 (\uc784\uc554\ub3d9)", "phone":"062-651-2879", "Examination_item":"\uad6c\uac15\uac80\uc9c4", "lat":126.873447, "lon":35.102073},
 {"id":214, "store_name":"\uc774\uc0ac\ub791\uce58\uacfc\uc758\uc6d0", "address":"\uad11\uc8fc\uad11\uc5ed\uc2dc \ub0a8\uad6c \ud6a8\uc6b02\ub85c 30 3\uce35 301\ud638 (\ud589\uc554\ub3d9  H&S\ube4c\ub529)", "phone":"062-673-2888", "Examination_item":"\uad6c\uac15\uac80\uc9c4", "lat":126.888849, "lon":35.101908},
 {"id":215, "store_name":"\uc774\uc548\ud76c\uce58\uacfc\uc758\uc6d0", "address":"\uad11\uc8fc\uad11\uc5ed\uc2dc \ub0a8\uad6c \uc11c\ubb38\ub300\ub85c 830 3\uce35 (\uc8fc\uc6d4\ub3d9)", "phone":"062-653-2828", "Examination_item":"\uad6c\uac15\uac80\uc9c4", "lat":126.901195, "lon":35.132425},
 {"id":216, "store_name":"\uc774\uc5f0\uce58\uacfc\uc758\uc6d0", "address":"\uad11\uc8fc\uad11\uc5ed\uc2dc \ub0a8\uad6c \ud654\uc0b0\ub85c 47 3\uce35 (\uc9c4\uc6d4\ub3d9)", "phone":"062-654-2028", "Examination_item":"\uad6c\uac15\uac80\uc9c4", "lat":126.901745, "lon":35.112725},
 {"id":217, "store_name":"\uc784\ud50c\ub7ec\uc2a4\uce58\uacfc\uc758\uc6d0", "address":"\uad11\uc8fc\uad11\uc5ed\uc2dc \ub0a8\uad6c \ud6a8\uc6b0\ub85c 81 3\uce35 (\ub178\ub300\ub3d9, \uae08\ub098\ub798\ube4c\ub529)", "phone":"062-714-2875", "Examination_item":"\uad6c\uac15\uac80\uc9c4", "lat":126.904586, "lon":35.106135},
 {"id":218, "store_name":"\uc815\ub2e4\uc6b4\uce58\uacfc\uc758\uc6d0", "address":"\uad11\uc8fc\uad11\uc5ed\uc2dc \ub0a8\uad6c \uc11c\ubb38\ub300\ub85c 683 3\uce35 301\ud638 (\uc9c4\uc6d4\ub3d9)", "phone":"062-672-2772", "Examination_item":"\uad6c\uac15\uac80\uc9c4", "lat":126.898609, "lon":35.119962},
 {"id":219, "store_name":"\uc815\uc740\uc8fc \u00b7 \uae40\uc11d\uce58\uacfc\uc758\uc6d0", "address":"\uad11\uc8fc\uad11\uc5ed\uc2dc \ub0a8\uad6c \uc6d4\uc0b0\ub85c 154 3\uce35 (\uc6d4\uc0b0\ub3d9)", "phone":"062-365-7528", "Examination_item":"\uad6c\uac15\uac80\uc9c4", "lat":126.895651, "lon":35.150528},
 {"id":220, "store_name":"\uc815\uc774\ub4e0\uce58\uacfc\uc758\uc6d0", "address":"\uad11\uc8fc\uad11\uc5ed\uc2dc \ub0a8\uad6c \uc11c\ubb38\ub300\ub85c 816 1\uce35 (\uc8fc\uc6d4\ub3d9)", "phone":"062-654-2275", "Examination_item":"\uad6c\uac15\uac80\uc9c4,\ud559\uad50\ubc16\uccad\uc18c\ub144\uac80\uc9c4", "lat":126.900541, "lon":35.131319},
 {"id":221, "store_name":"\uc870\uc601\uace4\uce58\uacfc\uc758\uc6d0", "address":"\uad11\uc8fc\uad11\uc5ed\uc2dc \ub0a8\uad6c \ub300\ub0a8\ub300\ub85c 139 3\uce35 (\uc8fc\uc6d4\ub3d9)", "phone":"062-714-2275", "Examination_item":"\uad6c\uac15\uac80\uc9c4", "lat":126.909803, "lon":35.133665},
 {"id":222, "store_name":"\uc870\uce58\uacfc\uc758\uc6d0", "address":"\uad11\uc8fc\uad11\uc5ed\uc2dc \ub0a8\uad6c \ubd09\uc1201\ub85c 47 3\uce35 (\ubd09\uc120\ub3d9, \uc870\uce58\uacfc)", "phone":"062-675-2275", "Examination_item":"\uad6c\uac15\uac80\uc9c4", "lat":126.910492, "lon":35.128029},
 {"id":223, "store_name":"\uc9c4\uc6d4\uc6b0\ub9ac\uce58\uacfc\uc758\uc6d0", "address":"\uad11\uc8fc\uad11\uc5ed\uc2dc \ub0a8\uad6c \uad11\ubcf5\ub9c8\uc744\uae38 47 \ubbf8\ub2c8\uc2a4\ud1b1 3\uce35 (\uc9c4\uc6d4\ub3d9)", "phone":"062-673-2879", "Examination_item":"\uad6c\uac15\uac80\uc9c4", "lat":126.897352, "lon":35.122015},
 {"id":224, "store_name":"\uc9c4\uc6d4\ud5c8\ube0c\uce58\uacfc\uc758\uc6d0", "address":"\uad11\uc8fc\uad11\uc5ed\uc2dc \ub0a8\uad6c \ud6a8\uc6b0\ub85c 87 203\ud638 (\ub178\ub300\ub3d9, \uc528\ud2f0\uba54\ub514\uceec\ube4c\ub529)", "phone":"062-672-2828", "Examination_item":"\uad6c\uac15\uac80\uc9c4", "lat":126.904573, "lon":35.105495},
 {"id":225, "store_name":"\uce58\uc544\ub9bc\uce58\uacfc\uc758\uc6d0", "address":"\uad11\uc8fc\uad11\uc5ed\uc2dc \ub0a8\uad6c \ubd09\uc120\ub85c 164 (\ubd09\uc120\ub3d9)", "phone":"062-654-7567", "Examination_item":"\uad6c\uac15\uac80\uc9c4", "lat":126.913096, "lon":35.122788},
 {"id":226, "store_name":"\ud0b9\ub364\uce58\uacfc\uc758\uc6d0", "address":"\uad11\uc8fc\uad11\uc5ed\uc2dc \ub0a8\uad6c \uc81c\uc11d\ub85c 110 4\uce35 (\ubd09\uc120\ub3d9, \uba54\uac00\uc2dc\ud2f0)", "phone":"062-671-4400", "Examination_item":"\uad6c\uac15\uac80\uc9c4", "lat":126.907464, "lon":35.123945},
 {"id":227, "store_name":"\ud0dc\uc591\uce58\uacfc\uc758\uc6d0", "address":"\uad11\uc8fc\uad11\uc5ed\uc2dc \ub0a8\uad6c \uc911\uc559\ub85c 46 4\uce35 (\uc11c\ub3d9)", "phone":"062-654-2815", "Examination_item":"\uad6c\uac15\uac80\uc9c4", "lat":126.903568, "lon":35.143668},
 {"id":228, "store_name":"\ud3ec\ub3c4\ub098\ubb34\uce58\uacfc\uc758\uc6d0", "address":"\uad11\uc8fc\uad11\uc5ed\uc2dc \ub0a8\uad6c \uc6a9\ub300\ub85c 180-2 2\uce35 (\ubc29\ub9bc\ub3d9)", "phone":"062-655-2875", "Examination_item":"\uad6c\uac15\uac80\uc9c4", "lat":126.91802, "lon":35.132107},
 {"id":229, "store_name":"\ud558\ub298\uacfc \ubc14\ub78c\uacfc \ubcc4\uacfc \uce58\uacfc\uc758\uc6d0", "address":"\uad11\uc8fc\uad11\uc5ed\uc2dc \ub0a8\uad6c \ud6a8\ucc9c2\ub85c\uac00\uae38 11 3\uce35 (\uc784\uc554\ub3d9)", "phone":"062-674-2820", "Examination_item":"\uad6c\uac15\uac80\uc9c4", "lat":126.874353, "lon":35.101594},
 {"id":230, "store_name":"\ud558\uc580\uc774\uce58\uacfc\uc758\uc6d0", "address":"\uad11\uc8fc\uad11\uc5ed\uc2dc \ub0a8\uad6c \uc815\uc728\uc131\ub85c 22 (\uc591\ub9bc\ub3d9)", "phone":"062-673-1855", "Examination_item":"\uad6c\uac15\uac80\uc9c4", "lat":126.917329, "lon":35.137843},
 {"id":231, "store_name":"\ud55c\uae38\uce58\uacfc\uc758\uc6d0", "address":"\uad11\uc8fc\uad11\uc5ed\uc2dc \ub0a8\uad6c \ubd09\uc1202\ub85c 53 2\uce35 (\ubd09\uc120\ub3d9, kc\ube4c\ub529 )", "phone":"062-376-8575", "Examination_item":"\uad6c\uac15\uac80\uc9c4", "lat":126.912407, "lon":35.125982},
 {"id":232, "store_name":"\ud589\ubcf5\ud55c\ubbf8\uc18c\uce58\uacfc\uc758\uc6d0", "address":"\uad11\uc8fc\uad11\uc5ed\uc2dc \ub0a8\uad6c \ubc31\uc6b4\ub85c66\ubc88\uae38 8 (\ubc31\uc6b4\ub3d9)", "phone":"062-653-7528", "Examination_item":"\uad6c\uac15\uac80\uc9c4", "lat":126.906795, "lon":35.138713},
 {"id":233, "store_name":"\ud6a8\ucc9c\uac00\uc871\uce58\uacfc\uc758\uc6d0", "address":"\uad11\uc8fc\uad11\uc5ed\uc2dc \ub0a8\uad6c \ud6a8\ucc9c2\ub85c 26 403\ud638 (\uc784\uc554\ub3d9)", "phone":"062-376-2879", "Examination_item":"\uad6c\uac15\uac80\uc9c4", "lat":126.873374, "lon":35.101811},
 {"id":234, "store_name":"365\uc5f4\ub9b0\uac00\uc815\uc758\uc6d0", "address":"\uad11\uc8fc\uad11\uc5ed\uc2dc \ubd81\uad6c \uc0bc\uc815\ub85c 7 204\ud638 (\ub450\uc554\ub3d9, \uc8fc\uacf52\ub2e8\uc9c0\uc0c1\uac00)", "phone":"062-268-5800", "Examination_item":"\uc601\uc720\uc544\uac80\uc9c4", "lat":126.935798, "lon":35.16394},
 {"id":235, "store_name":"\uad11\uc8fc\ubcd1\uc6d0", "address":"\uad11\uc8fc\uad11\uc5ed\uc2dc \ubd81\uad6c \uba74\uc559\ub85c139\ubc88\uae38 51 (\ub450\uc554\ub3d9)", "phone":"062-260-7357", "Examination_item":"\uc77c\ubc18,\uc554\uac80\uc9c4,\uad6c\uac15\uac80\uc9c4,\uc601\uc720\uc544\uac80\uc9c4,\ud559\uad50\ubc16\uccad\uc18c\ub144\uac80\uc9c4", "lat":126.92816, "lon":35.178853},
 {"id":236, "store_name":"\uad11\uc8fc\uc77c\uace1\ubcd1\uc6d0", "address":"\uad11\uc8fc\uad11\uc5ed\uc2dc \ubd81\uad6c \uc591\uc77c\ub85c 309 (\uc77c\uace1\ub3d9)", "phone":"062-608-7575", "Examination_item":"\uc77c\ubc18,\uc554\uac80\uc9c4,\uc601\uc720\uc544\uac80\uc9c4", "lat":126.897611, "lon":35.202862},
 {"id":237, "store_name":"\uad11\uc8fc\ud604\ub300\ubcd1\uc6d0", "address":"\uad11\uc8fc\uad11\uc5ed\uc2dc \ubd81\uad6c \uc124\uc8fd\ub85c 291 (\uc6a9\ubd09\ub3d9)", "phone":"062-570-0202", "Examination_item":"\uc77c\ubc18,\uc554\uac80\uc9c4,\uc601\uc720\uc544\uac80\uc9c4", "lat":126.897964, "lon":35.185685},
 {"id":238, "store_name":"\uad11\uc8fc\ud76c\ub9dd\ubcd1\uc6d0", "address":"\uad11\uc8fc\uad11\uc5ed\uc2dc \ubd81\uad6c \ud558\uc11c\ub85c 429 (\uc6a9\ub450\ub3d9)", "phone":"062-608-6576", "Examination_item":"\uc601\uc720\uc544\uac80\uc9c4", "lat":126.874743, "lon":35.213504},
 {"id":239, "store_name":"\uae40\uc758\uc6d0", "address":"\uad11\uc8fc\uad11\uc5ed\uc2dc \ubd81\uad6c \uc784\ubc29\uc6b8\ub300\ub85c 1039 3\uce35 201\ud638 (\uc2e0\uc6a9\ub3d9, \uc6a9\ub450\uc8fc\uacf5\uc544\ud30c\ud2b8)", "phone":"062-575-0257", "Examination_item":"\uc601\uc720\uc544\uac80\uc9c4", "lat":126.870996, "lon":35.212829},
 {"id":240, "store_name":"\ub3d9\ub9bc\uac00\uc815\uc758\ud559\uacfc\uc758\uc6d0", "address":"\uad11\uc8fc\uad11\uc5ed\uc2dc \ubd81\uad6c \ubd81\ubb38\ub300\ub85c242\ubc88\uae38 7 2\uce35 (\ub3d9\ub9bc\ub3d9)", "phone":"062-513-7588", "Examination_item":"\uc601\uc720\uc544\uac80\uc9c4", "lat":126.865949, "lon":35.187967},
 {"id":241, "store_name":"\ubb38\ud654\uc5ec\uc131\ubcd1\uc6d0", "address":"\uad11\uc8fc\uad11\uc5ed\uc2dc \ubd81\uad6c \ubd81\ubb38\ub300\ub85c 22 \uc9c0\ud5581\uce35,\uc9c0\uc0c11,2\uce35 ,3,4,7\uce35\ud638 (\uc6b4\uc554\ub3d9)", "phone":"062-511-6100", "Examination_item":"\uc554\uac80\uc9c4,\uc601\uc720\uc544\uac80\uc9c4", "lat":126.883021, "lon":35.174479},
 {"id":242, "store_name":"\ubc15\uc18c\uc544\uccad\uc18c\ub144\uacfc\uc758\uc6d0", "address":"\uad11\uc8fc\uad11\uc5ed\uc2dc \ubd81\uad6c \uba74\uc559\ub85c 32 (\uc6a9\ubd09\ub3d9)", "phone":"062-265-1035", "Examination_item":"\uc601\uc720\uc544\uac80\uc9c4", "lat":126.915592, "lon":35.179471},
 {"id":243, "store_name":"\ubd81\uad6c\ubbf8\ub798\uc544\ub3d9\ubcd1\uc6d0", "address":"\uad11\uc8fc\uad11\uc5ed\uc2dc \ubd81\uad6c \uc124\uc8fd\ub85c 346 (\uc624\uce58\ub3d9)", "phone":"062-250-2592", "Examination_item":"\uc77c\ubc18,\uc554\uac80\uc9c4,\uc601\uc720\uc544\uac80\uc9c4", "lat":126.899571, "lon":35.190324},
 {"id":244, "store_name":"\ube5b\uace0\uc744\uc5ec\uc131\ubcd1\uc6d0", "address":"\uad11\uc8fc\uad11\uc5ed\uc2dc \ubd81\uad6c \ud558\uc11c\ub85c 395 (\uc591\uc0b0\ub3d9)", "phone":"062-602-9000", "Examination_item":"\uc554\uac80\uc9c4,\uc601\uc720\uc544\uac80\uc9c4", "lat":126.8736, "lon":35.21042},
 {"id":245, "store_name":"\uc11c\uc9c0\uc5f0\uc18c\uc544\uccad\uc18c\ub144\uacfc\uc758\uc6d0", "address":"\uad11\uc8fc\uad11\uc5ed\uc2dc \ubd81\uad6c \ubd81\ubb38\ub300\ub85c 88 \uc0c1\uac00\ub3d9 211\ud638 (\uc6b4\uc554\ub3d9, \ub0a8\uc591\ud734\ud2bc 2\ucc28)", "phone":"062-381-8008", "Examination_item":"\uc601\uc720\uc544\uac80\uc9c4", "lat":126.8775, "lon":35.178367},
 {"id":246, "store_name":"\uc120\ub0b4\uacfc\uc758\uc6d0", "address":"\uad11\uc8fc\uad11\uc5ed\uc2dc \ubd81\uad6c \ud558\uc11c\ub85c 414 2\uce35 (\uc591\uc0b0\ub3d9)", "phone":"062-573-6677", "Examination_item":"\uc77c\ubc18,\uc554\uac80\uc9c4,\uc601\uc720\uc544\uac80\uc9c4", "lat":126.8747, "lon":35.211863},
 {"id":247, "store_name":"\uc544\uc774\ub9d8\uc544\ub3d9\ubcd1\uc6d0", "address":"\uad11\uc8fc\uad11\uc5ed\uc2dc \ubd81\uad6c \ud558\uc11c\ub85c 400 2,3,4,5\uce35 (\uc591\uc0b0\ub3d9)", "phone":"062-220-8000", "Examination_item":"\uc77c\ubc18,\uc601\uc720\uc544\uac80\uc9c4", "lat":126.874652, "lon":35.210592},
 {"id":248, "store_name":"\uc544\uc774\uc0dd\uac01\uc18c\uc544\uccad\uc18c\ub144\uacfc\uc758\uc6d0", "address":"\uad11\uc8fc\uad11\uc5ed\uc2dc \ubd81\uad6c \ucca8\ub2e8\uc5f0\uc2e0\ub85c107\ubc88\uae38 45-3 SD\ube4c\ub529 301\ud638 (\uc2e0\uc6a9\ub3d9)", "phone":"062-528-8605", "Examination_item":"\uc601\uc720\uc544\uac80\uc9c4", "lat":126.859541, "lon":35.207341},
 {"id":249, "store_name":"\uc544\uc774\uc232\uc18c\uc544\uccad\uc18c\ub144\uacfc\uc758\uc6d0", "address":"\uad11\uc8fc\uad11\uc5ed\uc2dc \ubd81\uad6c \ud669\uacc4\ub85c 34 201\ub3d9 2\uce35 \uc0c1\uac00205\ud638 (\uc6b4\uc554\ub3d9, \ubcbd\uc0b0\ube14\ub8e8\ubc0d \uba54\uac00\uc528\ud2f0)", "phone":"062-526-0500", "Examination_item":"\uc601\uc720\uc544\uac80\uc9c4", "lat":126.876412, "lon":35.17531},
 {"id":250, "store_name":"\uc5d0\ub374\ubcd1\uc6d0", "address":"\uad11\uc8fc\uad11\uc5ed\uc2dc \ubd81\uad6c \uba74\uc559\ub85c170\ubc88\uae38 10 (\ub450\uc554\ub3d9)", "phone":"062-260-3299", "Examination_item":"\uc77c\ubc18,\uc554\uac80\uc9c4,\uc601\uc720\uc544\uac80\uc9c4", "lat":126.929652, "lon":35.175567},
 {"id":251, "store_name":"\uc608\uc05c\uc18c\uc544\uccad\uc18c\ub144\uacfc\uc758\uc6d0", "address":"\uad11\uc8fc\uad11\uc5ed\uc2dc \ubd81\uad6c \uc0bc\uc815\ub85c 22 \uc9c0\ud5581\uce35 (\ub450\uc554\ub3d9, \ubaa8\uc544\ubbf8\ub798\ub3c4\uc544\ud30c\ud2b8)", "phone":"062-262-7775", "Examination_item":"\uc601\uc720\uc544\uac80\uc9c4", "lat":126.937171, "lon":35.163816},
 {"id":252, "store_name":"\uc624\ud604\uc8fc\uc758\uc6d0", "address":"\uad11\uc8fc\uad11\uc5ed\uc2dc \ubd81\uad6c \ubd81\ubb38\ub300\ub85c242\ubc88\uae38 13 203\ud638 (\ub3d9\ub9bc\ub3d9, \uc8fc\uacf5\uc544\ud30c\ud2b83\ub2e8\uc9c0\uc0c1\uac00)", "phone":"062-513-6789", "Examination_item":"\uc601\uc720\uc544\uac80\uc9c4", "lat":126.865955, "lon":35.188328},
 {"id":253, "store_name":"\uc62c\ub9ac\ube0c\uc18c\uc544\uccad\uc18c\ub144\uacfc\uc758\uc6d0", "address":"\uad11\uc8fc\uad11\uc5ed\uc2dc \ubd81\uad6c \ucca8\ub2e8\uc5f0\uc2e0\ub85c 105 \uc138\uc0c1\uba54\ub514\uceec\ube4c\ub529 3\uce35 (\uc2e0\uc6a9\ub3d9)", "phone":"062-571-5122", "Examination_item":"\uc601\uc720\uc544\uac80\uc9c4", "lat":126.864033, "lon":35.207347},
 {"id":254, "store_name":"\uc6b4\uc554\ud55c\uad6d\ubcd1\uc6d0", "address":"\uad11\uc8fc\uad11\uc5ed\uc2dc \ubd81\uad6c \ubd81\ubb38\ub300\ub85c 191 (\uc6b4\uc554\ub3d9)", "phone":"062-608-8230", "Examination_item":"\uc77c\ubc18,\uc554\uac80\uc9c4,\uc601\uc720\uc544\uac80\uc9c4", "lat":126.869797, "lon":35.185227},
 {"id":255, "store_name":"\uc704\ub4dc\uc720\uc18c\uc544\uccad\uc18c\ub144\uacfc\uc758\uc6d0", "address":"\uad11\uc8fc\uad11\uc5ed\uc2dc \ubd81\uad6c \uc784\ubc29\uc6b8\ub300\ub85c 1059 3\uce35 (\uc6a9\ub450\ub3d9)", "phone":"062-573-1500", "Examination_item":"\uc601\uc720\uc544\uac80\uc9c4", "lat":126.87316, "lon":35.212056},
 {"id":256, "store_name":"\uc88b\uc740\uac00\uc815\uc758\ud559\uacfc\uc758\uc6d0", "address":"\uad11\uc8fc\uad11\uc5ed\uc2dc \ubd81\uad6c \uc124\uc8fd\ub85c389\ubc88\uae38 77 (\uc0bc\uac01\ub3d9)", "phone":"062-574-2212", "Examination_item":"\uc601\uc720\uc544\uac80\uc9c4", "lat":126.899297, "lon":35.195955},
 {"id":257, "store_name":"\uc911\uc559\uc18c\uc544\uccad\uc18c\ub144\uacfc\uc758\uc6d0", "address":"\uad11\uc8fc\uad11\uc5ed\uc2dc \ubd81\uad6c \ub3d9\ubb38\ub300\ub85c 111 1,2\uce35 (\uc6b0\uc0b0\ub3d9)", "phone":"062-261-7275", "Examination_item":"\uc601\uc720\uc544\uac80\uc9c4", "lat":126.924938, "lon":35.173389},
 {"id":258, "store_name":"\ucca8\ub2e8\uac00\uc871\uc5f0\ud569\uc758\uc6d0", "address":"\uad11\uc8fc\uad11\uc5ed\uc2dc \ubd81\uad6c \ucca8\ub2e8\uc5f0\uc2e0\ub85c 194 \uc0c1\uac00\ub3d9 2\uce35 203\ud638 (\uc2e0\uc6a9\ub3d9, \ud55c\uc591\uc218\uc790\uc778\ub9ac\ubc84\ubdf0)", "phone":"062-513-8876", "Examination_item":"\uc601\uc720\uc544\uac80\uc9c4", "lat":126.860427, "lon":35.213127},
 {"id":259, "store_name":"\ucd5c\uc0ac\uc601\uc18c\uc544\uacfc\uc758\uc6d0", "address":"\uad11\uc8fc\uad11\uc5ed\uc2dc \ubd81\uad6c \uc11c\ud558\ub85c 389 2\uce35 (\ubb38\ud765\ub3d9)", "phone":"062-267-4255", "Examination_item":"\uc601\uc720\uc544\uac80\uc9c4", "lat":126.922683, "lon":35.185376},
 {"id":260, "store_name":"\ucf54\ucf54\uc774\ube44\uc778\ud6c4\uacfc\uc758\uc6d0", "address":"\uad11\uc8fc\uad11\uc5ed\uc2dc \ubd81\uad6c \uc11c\ud558\ub85c 385 2\uce35 (\ubb38\ud765\ub3d9)", "phone":"062-263-9117", "Examination_item":"\uc601\uc720\uc544\uac80\uc9c4", "lat":126.922495, "lon":35.185455},
 {"id":261, "store_name":"\ud55c\uc0ac\ub791\uac00\uc815\uc758\ud559\uacfc\uc758\uc6d0", "address":"\uad11\uc8fc\uad11\uc5ed\uc2dc \ubd81\uad6c \ud3c9\uad50\ub85c 27-1 (\ubb38\ud765\ub3d9)", "phone":"062-266-2480", "Examination_item":"\uc601\uc720\uc544\uac80\uc9c4", "lat":126.925017, "lon":35.17988},
 {"id":262, "store_name":"\ud55c\uc194\ub0b4\uacfc\uc758\uc6d0", "address":"\uad11\uc8fc\uad11\uc5ed\uc2dc \ubd81\uad6c \ub9e4\uace1\ub85c 34 1-3\uce35 (\ub9e4\uace1\ub3d9)", "phone":"062-576-1800", "Examination_item":"\uc77c\ubc18,\uc554\uac80\uc9c4,\uc601\uc720\uc544\uac80\uc9c4", "lat":126.89454, "lon":35.188034},
 {"id":263, "store_name":"e-\ud478\ub978\uce58\uacfc\uc758\uc6d0", "address":"\uad11\uc8fc\uad11\uc5ed\uc2dc \ubd81\uad6c \ubd81\ubb38\ub300\ub85c 242 3\uce35 (\ub3d9\ub9bc\ub3d9)", "phone":"062-515-2275", "Examination_item":"\uad6c\uac15\uac80\uc9c4", "lat":126.865728, "lon":35.18728},
 {"id":264, "store_name":"e\uc740\ud61c\uce58\uacfc\uc758\uc6d0", "address":"\uad11\uc8fc\uad11\uc5ed\uc2dc \ubd81\uad6c \uc784\ubc29\uc6b8\ub300\ub85c 1044 4\uce35 (\uc6a9\ub450\ub3d9)", "phone":"062-571-2882", "Examination_item":"\uad6c\uac15\uac80\uc9c4", "lat":126.871185, "lon":35.21193},
 {"id":265, "store_name":"\uace0\uc218\ud76c\uce58\uacfc\uc758\uc6d0", "address":"\uad11\uc8fc\uad11\uc5ed\uc2dc \ubd81\uad6c \uc11c\ud558\ub85c194\ubc88\uae38 2 \uc0c1\uac00\ub3d9 201.202\ud638 (\uc624\uce58\ub3d9)", "phone":"062-266-7575", "Examination_item":"\uad6c\uac15\uac80\uc9c4", "lat":126.901355, "lon":35.18668},
 {"id":266, "store_name":"\uace0\uce58\uacfc\uc758\uc6d0", "address":"\uad11\uc8fc\uad11\uc5ed\uc2dc \ubd81\uad6c \uc11c\ud558\ub85c 377 2\uce35 (\ubb38\ud765\ub3d9)", "phone":"062-267-2275", "Examination_item":"\uad6c\uac15\uac80\uc9c4", "lat":126.921622, "lon":35.185916},
 {"id":267, "store_name":"\uad11\uc8fc\ubaa8\uc544\uce58\uacfc\uc758\uc6d0", "address":"\uad11\uc8fc\uad11\uc5ed\uc2dc \ubd81\uad6c \uc124\uc8fd\ub85c 515 6\uce35 (\uc77c\uace1\ub3d9)", "phone":"062-571-2141", "Examination_item":"\uad6c\uac15\uac80\uc9c4", "lat":126.897473, "lon":35.205006},
 {"id":268, "store_name":"\uad11\uc8fc\ud0d1\uce58\uacfc\uc758\uc6d0", "address":"\uad11\uc8fc\uad11\uc5ed\uc2dc \ubd81\uad6c \ud544\ubb38\ub300\ub85c 95 (\ud48d\ud5a5\ub3d9)", "phone":"062-263-2275", "Examination_item":"\uad6c\uac15\uac80\uc9c4", "lat":126.929708, "lon":35.162101},
 {"id":269, "store_name":"\uad11\uc8fc\ud558\ud2b8\uce58\uacfc\uc758\uc6d0", "address":"\uad11\uc8fc\uad11\uc5ed\uc2dc \ubd81\uad6c \uac01\ud654\ub300\ub85c 5 7\uce35 (\uac01\ud654\ub3d9)", "phone":"062-716-0800", "Examination_item":"\uad6c\uac15\uac80\uc9c4", "lat":126.931585, "lon":35.182219},
 {"id":270, "store_name":"\uad6c\uad6c\uce58\uacfc\uc758\uc6d0", "address":"\uad11\uc8fc\uad11\uc5ed\uc2dc \ubd81\uad6c \ub3d9\ubb38\ub300\ub85c 109 (\uc6b0\uc0b0\ub3d9)", "phone":"062-263-9975", "Examination_item":"\uad6c\uac15\uac80\uc9c4", "lat":126.924964, "lon":35.173119},
 {"id":271, "store_name":"\uad7f\ubaa8\ub2dd\uce58\uacfc\uc758\uc6d0", "address":"\uad11\uc8fc\uad11\uc5ed\uc2dc \ubd81\uad6c \ubd81\ubb38\ub300\ub85c 184 5\uce35 (\uc6b4\uc554\ub3d9)", "phone":"062-527-2855", "Examination_item":"\uad6c\uac15\uac80\uc9c4,\ud559\uad50\ubc16\uccad\uc18c\ub144\uac80\uc9c4", "lat":126.870999, "lon":35.18486},
 {"id":272, "store_name":"\uae40\ud615\uc7ac\uce58\uacfc\uc758\uc6d0", "address":"\uad11\uc8fc\uad11\uc5ed\uc2dc \ubd81\uad6c \uc6b0\uce58\ub85c 76 (\uc911\ud765\ub3d9)", "phone":"062-264-1332", "Examination_item":"\uad6c\uac15\uac80\uc9c4", "lat":126.91295, "lon":35.174202},
 {"id":273, "store_name":"\uaf2c\ub9c8\uc774\uce58\uacfc\uc758\uc6d0", "address":"\uad11\uc8fc\uad11\uc5ed\uc2dc \ubd81\uad6c \uc11c\ud558\ub85c 386 3\uce35 (\ubb38\ud765\ub3d9)", "phone":"062-269-2828", "Examination_item":"\uad6c\uac15\uac80\uc9c4", "lat":126.922105, "lon":35.185073},
 {"id":274, "store_name":"\ub098\ube44\uce58\uacfc\uc758\uc6d0", "address":"\uad11\uc8fc\uad11\uc5ed\uc2dc \ubd81\uad6c \uac08\ub9c8\ub85c 23 (\ud48d\ud5a5\ub3d9)", "phone":"062-268-7528", "Examination_item":"\uad6c\uac15\uac80\uc9c4", "lat":126.933199, "lon":35.161222},
 {"id":275, "store_name":"\ub178\ube14\uce58\uacfc\uc758\uc6d0", "address":"\uad11\uc8fc\uad11\uc5ed\uc2dc \ubd81\uad6c \ucca8\ub2e8\uc5f0\uc2e0\ub85c 101 2\uce35 (\uc2e0\uc6a9\ub3d9)", "phone":"062-447-2872", "Examination_item":"\uad6c\uac15\uac80\uc9c4", "lat":126.864037, "lon":35.207014},
 {"id":276, "store_name":"\ub204\uac00\uce58\uacfc\uc758\uc6d0", "address":"\uad11\uc8fc\uad11\uc5ed\uc2dc \ubd81\uad6c \ud558\uc11c\ub85c 445 2\uce35 (\uc6a9\ub450\ub3d9)", "phone":"062-571-2875", "Examination_item":"\uad6c\uac15\uac80\uc9c4", "lat":126.875618, "lon":35.214621},
 {"id":277, "store_name":"\ub298\uae30\uc068\uce58\uacfc\uc758\uc6d0", "address":"\uad11\uc8fc\uad11\uc5ed\uc2dc \ubd81\uad6c \uc591\uc77c\ub85c 64 2\uce35 (\uc5f0\uc81c\ub3d9)", "phone":"062-573-2835", "Examination_item":"\uad6c\uac15\uac80\uc9c4", "lat":126.871902, "lon":35.197397},
 {"id":278, "store_name":"\ub2e4\ub2c8\uc5d8\uce58\uacfc\uc758\uc6d0", "address":"\uad11\uc8fc\uad11\uc5ed\uc2dc \ubd81\uad6c \uc124\uc8fd\ub85c 337 (\ub9e4\uace1\ub3d9)", "phone":"062-572-2879", "Examination_item":"\uad6c\uac15\uac80\uc9c4", "lat":126.898708, "lon":35.19},
 {"id":279, "store_name":"\ub300\uc2b9\uce58\uacfc\uc758\uc6d0", "address":"\uad11\uc8fc\uad11\uc5ed\uc2dc \ubd81\uad6c \uc11c\uc591\ub85c 47-2 2\uce35 (\uc911\ud765\ub3d9)", "phone":"062-528-2833", "Examination_item":"\uad6c\uac15\uac80\uc9c4", "lat":126.906691, "lon":35.17026},
 {"id":280, "store_name":"\ub354\uc774\ud2bc\uce58\uacfc\uc758\uc6d0", "address":"\uad11\uc8fc\uad11\uc5ed\uc2dc \ubd81\uad6c \ub3d9\ubb38\ub300\ub85c 96 \uc8fc\uc120\uba54\ub514\uceec\ube4c\ub529 5\uce35 501\ud638 (\ub450\uc554\ub3d9)", "phone":"062-269-7522", "Examination_item":"\uad6c\uac15\uac80\uc9c4", "lat":126.924419, "lon":35.171933},
 {"id":281, "store_name":"\ub3d9\ub9bc\uce58\uacfc\uc758\uc6d0", "address":"\uad11\uc8fc\uad11\uc5ed\uc2dc \ubd81\uad6c \ubd81\ubb38\ub300\ub85c242\ubc88\uae38 7 201\ud638 (\ub3d9\ub9bc\ub3d9)", "phone":"062-513-7528", "Examination_item":"\uad6c\uac15\uac80\uc9c4", "lat":126.865949, "lon":35.187967},
 {"id":282, "store_name":"\ub450\ub9ac\uce58\uacfc\uc758\uc6d0", "address":"\uad11\uc8fc\uad11\uc5ed\uc2dc \ubd81\uad6c \uc11c\ud558\ub85c 379 3\uce35 (\ubb38\ud765\ub3d9)", "phone":"062-268-1875", "Examination_item":"\uad6c\uac15\uac80\uc9c4", "lat":126.92191, "lon":35.185756},
 {"id":283, "store_name":"\ub4dc\ub9bc\uce58\uacfc\uc758\uc6d0", "address":"\uad11\uc8fc\uad11\uc5ed\uc2dc \ubd81\uad6c \ucca8\ub2e8\uc5f0\uc2e0\ub85c107\ubc88\uae38 5 3\uce35 (\uc2e0\uc6a9\ub3d9)", "phone":"062-574-3828", "Examination_item":"\uad6c\uac15\uac80\uc9c4", "lat":126.863593, "lon":35.207352},
 {"id":284, "store_name":"\ub77c\ud30c\uc5d8\uce58\uacfc\uc758\uc6d0", "address":"\uad11\uc8fc\uad11\uc5ed\uc2dc \ubd81\uad6c \ubd81\ubb38\ub300\ub85c 249 2\uce35 (\ub3d9\ub9bc\ub3d9)", "phone":"062-523-2804", "Examination_item":"\uad6c\uac15\uac80\uc9c4", "lat":126.864888, "lon":35.186903},
 {"id":285, "store_name":"\ub7a8\ube0c\ub780\ud2b8\uce58\uacfc\uad50\uc815\uacfc\uce58\uacfc\uc758\uc6d0", "address":"\uad11\uc8fc\uad11\uc5ed\uc2dc \ubd81\uad6c \ubd81\ubb38\ub300\ub85c 39-1 4\uce35 (\uc6b4\uc554\ub3d9)", "phone":"062-524-7528", "Examination_item":"\uad6c\uac15\uac80\uc9c4", "lat":126.881026, "lon":35.175047},
 {"id":286, "store_name":"\ub9e4\uace1\uac00\uc871\uce58\uacfc\uad50\uc815\uacfc\uce58\uacfc\uc758\uc6d0", "address":"\uad11\uc8fc\uad11\uc5ed\uc2dc \ubd81\uad6c \ub9e4\uace1\ub85c 55 203\ud638 (\ub9e4\uace1\ub3d9)", "phone":"062-576-2804", "Examination_item":"\uad6c\uac15\uac80\uc9c4", "lat":126.89365, "lon":35.189693},
 {"id":287, "store_name":"\ubaa8\ub4e0\uce58\uacfc\uc758\uc6d0", "address":"\uad11\uc8fc\uad11\uc5ed\uc2dc \ubd81\uad6c \uc124\uc8fd\ub85c 338 3\uce35 (\uc624\uce58\ub3d9, \uc77c\uace1\ubcd1\uc6d0)", "phone":"062-252-2600", "Examination_item":"\uad6c\uac15\uac80\uc9c4", "lat":126.899382, "lon":35.189637},
 {"id":288, "store_name":"\ubbf8\uc18c\uc9c0\uc74c\uce58\uacfc\uc758\uc6d0", "address":"\uad11\uc8fc\uad11\uc5ed\uc2dc \ubd81\uad6c \uc591\uc0b0\ub85c 2 3\uce35 (\uc591\uc0b0\ub3d9)", "phone":"062-575-2872", "Examination_item":"\uad6c\uac15\uac80\uc9c4", "lat":126.874724, "lon":35.210953},
 {"id":289, "store_name":"\ubbf8\uc8fc\uce58\uacfc\uc758\uc6d0", "address":"\uad11\uc8fc\uad11\uc5ed\uc2dc \ubd81\uad6c \uc11c\uc554\ub300\ub85c 33 2\uce35 (\uc6b4\uc554\ub3d9)", "phone":"062-525-2875", "Examination_item":"\uad6c\uac15\uac80\uc9c4", "lat":126.888674, "lon":35.172927},
 {"id":290, "store_name":"\ubbff\uc74c\uce58\uacfc\uc758\uc6d0", "address":"\uad11\uc8fc\uad11\uc5ed\uc2dc \ubd81\uad6c \ub9e4\uace1\ub85c 45 2,3\uce35 (\ub9e4\uace1\ub3d9)", "phone":"062-574-0028", "Examination_item":"\uad6c\uac15\uac80\uc9c4", "lat":126.894143, "lon":35.188985},
 {"id":291, "store_name":"\ubc14\ub978\uc190\uce58\uacfc\uc758\uc6d0", "address":"\uad11\uc8fc\uad11\uc5ed\uc2dc \ubd81\uad6c \uc11c\uac15\ub85c54\ubc88\uae38 50 \ubcbd\uc0b0\ube14\ub8e8\ubc0d2\ucc28\uc544\ud30c\ud2b8 201\ub3d9 \uc0c1\uac002\uce35 201,202\ud638 (\uc6b4\uc554\ub3d9)", "phone":"062-511-2871", "Examination_item":"\uad6c\uac15\uac80\uc9c4", "lat":126.876258, "lon":35.1753},
 {"id":292, "store_name":"\ubc14\ub978\uc774\uce58\uacfc\uc758\uc6d0", "address":"\uad11\uc8fc\uad11\uc5ed\uc2dc \ubd81\uad6c \uc124\uc8fd\ub85c 504 2\uce35 (\uc77c\uace1\ub3d9)", "phone":"062-574-2828", "Examination_item":"\uad6c\uac15\uac80\uc9c4", "lat":126.898451, "lon":35.204159},
 {"id":293, "store_name":"\ubc15\uc0c1\uc218\uce58\uacfc\uc758\uc6d0", "address":"\uad11\uc8fc\uad11\uc5ed\uc2dc \ubd81\uad6c \ube44\uc5d4\ub0a0\ub808\ub85c 97 3\uce35 (\uc6a9\ubd09\ub3d9, \ub4e4\ucd9c\uc27c\ud130)", "phone":"062-225-2000", "Examination_item":"\uad6c\uac15\uac80\uc9c4", "lat":126.889843, "lon":35.180599},
 {"id":294, "store_name":"\ubc15\uc6d0\uae38\uce58\uacfc\uc758\uc6d0", "address":"\uad11\uc8fc\uad11\uc5ed\uc2dc \ubd81\uad6c \uc124\uc8fd\ub85c 376 3\uce35 (\uc0bc\uac01\ub3d9)", "phone":"062-268-6467", "Examination_item":"\uad6c\uac15\uac80\uc9c4", "lat":126.898932, "lon":35.192914},
 {"id":295, "store_name":"\ubc15\uc9c4\uc601\uce58\uacfc\uc758\uc6d0", "address":"\uad11\uc8fc\uad11\uc5ed\uc2dc \ubd81\uad6c \uc11c\ubc29\ub85c 3 2\uce35 (\uc911\ud765\ub3d9)", "phone":"062-262-8828", "Examination_item":"\uad6c\uac15\uac80\uc9c4", "lat":126.913528, "lon":35.17372},
 {"id":296, "store_name":"\ubc15\uce58\uacfc\uc758\uc6d0", "address":"\uad11\uc8fc\uad11\uc5ed\uc2dc \ubd81\uad6c \uc11c\ud558\ub85c 385 5\uce35 (\ubb38\ud765\ub3d9)", "phone":"062-269-0077", "Examination_item":"\uad6c\uac15\uac80\uc9c4", "lat":126.922495, "lon":35.185455},
 {"id":297, "store_name":"\ubc18\uc11d\uce58\uacfc\uc758\uc6d0", "address":"\uad11\uc8fc\uad11\uc5ed\uc2dc \ubd81\uad6c \uc11c\ud558\ub85c 380 4\uce35 (\ubb38\ud765\ub3d9)", "phone":"062-268-2875", "Examination_item":"\uad6c\uac15\uac80\uc9c4", "lat":126.921586, "lon":35.18533},
 {"id":298, "store_name":"\ubc1d\uc740\ubbf8\uc18c\uce58\uacfc\uc758\uc6d0", "address":"\uad11\uc8fc\uad11\uc5ed\uc2dc \ubd81\uad6c \uc124\uc8fd\ub85c370\ubc88\uae38 32 3\uce35 (\uc624\uce58\ub3d9)", "phone":"062-574-8228", "Examination_item":"\uad6c\uac15\uac80\uc9c4", "lat":126.901976, "lon":35.1935},
 {"id":299, "store_name":"\ubc1d\uc740\uce58\uacfc\uc758\uc6d0", "address":"\uad11\uc8fc\uad11\uc5ed\uc2dc \ubd81\uad6c \uc124\uc8fd\ub85c315\ubc88\uae38 42 2\uce35 (\ub9e4\uace1\ub3d9)", "phone":"062-575-2275", "Examination_item":"\uad6c\uac15\uac80\uc9c4", "lat":126.894645, "lon":35.189215},
 {"id":300, "store_name":"\ubc30\uc6c5\uce58\uacfc\uc758\uc6d0", "address":"\uad11\uc8fc\uad11\uc5ed\uc2dc \ubd81\uad6c \ub3d9\ubb38\ub300\ub85c 129 1\uce35 (\uc6b0\uc0b0\ub3d9)", "phone":"062-262-2875", "Examination_item":"\uad6c\uac15\uac80\uc9c4", "lat":126.926063, "lon":35.174634},
 {"id":301, "store_name":"\ubc31\ub9bc\uce58\uacfc\uc758\uc6d0", "address":"\uad11\uc8fc\uad11\uc5ed\uc2dc \ubd81\uad6c \ud544\ubb38\ub300\ub85c 85 2\uce35 (\ud48d\ud5a5\ub3d9)", "phone":"062-251-0028", "Examination_item":"\uad6c\uac15\uac80\uc9c4", "lat":126.928704, "lon":35.162498},
 {"id":302, "store_name":"\ubc31\uc138\uce58\uacfc\uc758\uc6d0", "address":"\uad11\uc8fc\uad11\uc5ed\uc2dc \ubd81\uad6c \ubd81\ubb38\ub300\ub85c 88 (\uc6b4\uc554\ub3d9, \ub0a8\uc591\ud734\ud2bc 2\ucc28)", "phone":"062-521-0088", "Examination_item":"\uad6c\uac15\uac80\uc9c4", "lat":126.8775, "lon":35.178367},
 {"id":303, "store_name":"\ubc31\uc138\ud2bc\ud2bc\uce58\uacfc\uc758\uc6d0", "address":"\uad11\uc8fc\uad11\uc5ed\uc2dc \ubd81\uad6c \ub3d9\ubb38\ub300\ub85c 181 (\ub450\uc554\ub3d9)", "phone":"062-265-2275", "Examination_item":"\uad6c\uac15\uac80\uc9c4", "lat":126.928909, "lon":35.178652},
 {"id":304, "store_name":"\ubca0\uc2a4\ud2b8\uce58\uacfc\uc758\uc6d0", "address":"\uad11\uc8fc\uad11\uc5ed\uc2dc \ubd81\uad6c \ub3d9\ubb38\ub300\ub85c 79-1 5\uce35 (\uc6b0\uc0b0\ub3d9)", "phone":"062-269-2879", "Examination_item":"\uad6c\uac15\uac80\uc9c4", "lat":126.922668, "lon":35.171512},
 {"id":305, "store_name":"\ubcf4\uc2a4\ud1a4\uce58\uacfc\uc758\uc6d0", "address":"\uad11\uc8fc\uad11\uc5ed\uc2dc \ubd81\uad6c \ub3d9\ubb38\ub300\ub85c 123 2\uce35 (\uc6b0\uc0b0\ub3d9)", "phone":"062-263-7528", "Examination_item":"\uad6c\uac15\uac80\uc9c4", "lat":126.925729, "lon":35.174162},
 {"id":306, "store_name":"\uc0ac\ub791\uc774\uac00\ub4dd\ud55c\uce58\uacfc\uc758\uc6d0", "address":"\uad11\uc8fc\uad11\uc5ed\uc2dc \ubd81\uad6c \uc124\uc8fd\ub85c 495 3\uce35 (\uc77c\uace1\ub3d9)", "phone":"062-575-2875", "Examination_item":"\uad6c\uac15\uac80\uc9c4", "lat":126.898099, "lon":35.203362},
 {"id":307, "store_name":"\uc0c8\ubcf5\uc74c\uce58\uacfc\uc758\uc6d0", "address":"\uad11\uc8fc\uad11\uc5ed\uc2dc \ubd81\uad6c \ud558\uc11c\ub85c 410 2\uce35 (\uc591\uc0b0\ub3d9)", "phone":"062-572-1520", "Examination_item":"\uad6c\uac15\uac80\uc9c4", "lat":126.874716, "lon":35.211476},
 {"id":308, "store_name":"\uc0c8\ud604\ub300\uce58\uacfc\uc758\uc6d0", "address":"\uad11\uc8fc\uad11\uc5ed\uc2dc \ubd81\uad6c \uc124\uc8fd\ub85c 291 2\uce35 (\uc6a9\ubd09\ub3d9)", "phone":"062-570-0028", "Examination_item":"\uad6c\uac15\uac80\uc9c4", "lat":126.897964, "lon":35.185685},
 {"id":309, "store_name":"\uc0d8\uce58\uacfc\uc758\uc6d0", "address":"\uad11\uc8fc\uad11\uc5ed\uc2dc \ubd81\uad6c \uc124\uc8fd\ub85c 319 2\uce35 (\ub9e4\uace1\ub3d9)", "phone":"062-574-2575", "Examination_item":"\uad6c\uac15\uac80\uc9c4", "lat":126.898567, "lon":35.188196},
 {"id":310, "store_name":"\uc11c\ub9bc\uce58\uacfc\uc758\uc6d0", "address":"\uad11\uc8fc\uad11\uc5ed\uc2dc \ubd81\uad6c \uc11c\ub9bc\ub85c 109-1 2\uce35 (\uc784\ub3d9)", "phone":"062-524-6798", "Examination_item":"\uad6c\uac15\uac80\uc9c4", "lat":126.898054, "lon":35.161971},
 {"id":311, "store_name":"\uc11c\uc0b0\uce58\uacfc\uc758\uc6d0", "address":"\uad11\uc8fc\uad11\uc5ed\uc2dc \ubd81\uad6c \uc6b0\uce58\ub85c234\ubc88\uae38 5-1 3\uce35 (\uc624\uce58\ub3d9)", "phone":"062-265-7779", "Examination_item":"\uad6c\uac15\uac80\uc9c4", "lat":126.905669, "lon":35.185917},
 {"id":312, "store_name":"\uc11c\uc6b8\uce58\uacfc\uc758\uc6d0", "address":"\uad11\uc8fc\uad11\uc5ed\uc2dc \ubd81\uad6c \uc124\uc8fd\ub85c 416 \uc0c1\uac00\ub3d9 207,208\ud638 (\uc0bc\uac01\ub3d9, \uc0bc\uac01\ub3d9 \uace8\ub4dc\ud074\ub798\uc2a4)", "phone":"062-571-8555", "Examination_item":"\uad6c\uac15\uac80\uc9c4", "lat":126.901412, "lon":35.196308},
 {"id":313, "store_name":"\uc120\uce58\uacfc\uc758\uc6d0", "address":"\uad11\uc8fc\uad11\uc5ed\uc2dc \ubd81\uad6c \uad70\uc655\ub85c 1 2\uce35 (\ud48d\ud5a5\ub3d9)", "phone":"062-512-8275", "Examination_item":"\uad6c\uac15\uac80\uc9c4", "lat":126.928415, "lon":35.162757},
 {"id":314, "store_name":"\uc120\ud55c\uc774\uc6c3\uce58\uacfc\uc758\uc6d0", "address":"\uad11\uc8fc\uad11\uc5ed\uc2dc \ubd81\uad6c \uc591\uc0b0\ud0dd\uc9c0\ub85c 58 2\uce35 (\uc591\uc0b0\ub3d9)", "phone":"062-574-8275", "Examination_item":"\uad6c\uac15\uac80\uc9c4", "lat":126.880945, "lon":35.211353},
 {"id":315, "store_name":"\uc13c\ud2b8\ub7f4\uce58\uacfc\uc758\uc6d0", "address":"\uad11\uc8fc\uad11\uc5ed\uc2dc \ubd81\uad6c \ud558\uc11c\ub85c 401 \ub9c8\ub514\ube4c\ub529 302\ud638 (\uc591\uc0b0\ub3d9)", "phone":"062-576-2882", "Examination_item":"\uad6c\uac15\uac80\uc9c4", "lat":126.873836, "lon":35.21081},
 {"id":316, "store_name":"\uc190\uad00\ud76c\uce58\uacfc\uc758\uc6d0", "address":"\uad11\uc8fc\uad11\uc5ed\uc2dc \ubd81\uad6c \ubb38\uc0b0\ub85c 43-2 2\uce35 (\ubb38\ud765\ub3d9)", "phone":"062-267-7292", "Examination_item":"\uad6c\uac15\uac80\uc9c4", "lat":126.923091, "lon":35.186082},
 {"id":317, "store_name":"\uc2a4\uc704\ud2b8\uce58\uacfc\uc758\uc6d0", "address":"\uad11\uc8fc\uad11\uc5ed\uc2dc \ubd81\uad6c \uc720\ub9bc\ub85c 165 102\ud638 (\ub3d9\ub9bc\ub3d9)", "phone":"062-514-2228", "Examination_item":"\uad6c\uac15\uac80\uc9c4", "lat":126.864021, "lon":35.177403},
 {"id":318, "store_name":"\uc544\uac00\ud398\uce58\uacfc\uc758\uc6d0", "address":"\uad11\uc8fc\uad11\uc5ed\uc2dc \ubd81\uad6c \uc11c\ud558\ub85c 119 2\uce35 (\ub9e4\uace1\ub3d9, \uc6b0\ub9ac\ube4c\ub529)", "phone":"062-576-2879", "Examination_item":"\uad6c\uac15\uac80\uc9c4", "lat":126.893634, "lon":35.18762},
 {"id":319, "store_name":"\uc548\ud55c\ub098\uc5b4\ub9b0\uc774\uce58\uacfc\uc758\uc6d0", "address":"\uad11\uc8fc\uad11\uc5ed\uc2dc \ubd81\uad6c \uc11c\uac15\ub85c 89 3\uce35 301\ud638 (\uc6b4\uc554\ub3d9)", "phone":"062-511-2875", "Examination_item":"\uad6c\uac15\uac80\uc9c4", "lat":126.871902, "lon":35.179884},
 {"id":320, "store_name":"\uc5d0\uc774\ud50c\ub780\ud2b8\uce58\uacfc\uc758\uc6d0", "address":"\uad11\uc8fc\uad11\uc5ed\uc2dc \ubd81\uad6c \uc784\ubc29\uc6b8\ub300\ub85c 1039 4\uce35 (\uc2e0\uc6a9\ub3d9)", "phone":"062-575-0123", "Examination_item":"\uad6c\uac15\uac80\uc9c4", "lat":126.870996, "lon":35.212829},
 {"id":321, "store_name":"\uc5d4\uc640\uc758\uc591\uce58\uacfc\uc758\uc6d0", "address":"\uad11\uc8fc\uad11\uc5ed\uc2dc \ubd81\uad6c \ubd81\ubb38\ub300\ub85c 117 3\uce35 304\ud638 (\uc6b4\uc554\ub3d9)", "phone":"062-529-2879", "Examination_item":"\uad6c\uac15\uac80\uc9c4", "lat":126.87454, "lon":35.179683},
 {"id":322, "store_name":"\uc5d8\ub9ac\ud2b8\uce58\uacfc\uc758\uc6d0", "address":"\uad11\uc8fc\uad11\uc5ed\uc2dc \ubd81\uad6c \ud558\uc11c\ub85c 421 3\uce35 (\uc6a9\ub450\ub3d9, \uc591\uc0b0\ube4c\ub529)", "phone":"062-574-7528", "Examination_item":"\uad6c\uac15\uac80\uc9c4", "lat":126.874195, "lon":35.212679},
 {"id":323, "store_name":"\uc5d8\uce58\uacfc\uc758\uc6d0", "address":"\uad11\uc8fc\uad11\uc5ed\uc2dc \ubd81\uad6c \ub9e4\uace1\ub85c 70 2\uce35 (\ub9e4\uace1\ub3d9)", "phone":"062-574-2879", "Examination_item":"\uad6c\uac15\uac80\uc9c4", "lat":126.893244, "lon":35.191276},
 {"id":324, "store_name":"\uc5f0\uc81c\ubbf8\ub2f4\uce58\uacfc\uc758\uc6d0", "address":"\uad11\uc8fc\uad11\uc5ed\uc2dc \ubd81\uad6c \uc591\uc77c\ub85c 76 3\uce35 (\uc591\uc0b0\ub3d9)", "phone":"062-572-2872", "Examination_item":"\uad6c\uac15\uac80\uc9c4", "lat":126.873063, "lon":35.19757},
 {"id":325, "store_name":"\uc5f0\uc81c\ubc14\ub978\uce58\uacfc\uc758\uc6d0", "address":"\uad11\uc8fc\uad11\uc5ed\uc2dc \ubd81\uad6c \uc591\uc77c\ub85c 72 2\uce35 (\uc591\uc0b0\ub3d9)", "phone":"062-571-3222", "Examination_item":"\uad6c\uac15\uac80\uc9c4", "lat":126.872558, "lon":35.197593},
 {"id":326, "store_name":"\uc5f0\uc81c\ud604\uce58\uacfc\uc758\uc6d0", "address":"\uad11\uc8fc\uad11\uc5ed\uc2dc \ubd81\uad6c \uc591\uc77c1\ub85c 5 3\uce35 301\ud638 (\uc5f0\uc81c\ub3d9)", "phone":"062-714-2879", "Examination_item":"\uad6c\uac15\uac80\uc9c4", "lat":126.871037, "lon":35.197236},
 {"id":327, "store_name":"\uc5f0\uce58\uacfc\uc758\uc6d0", "address":"\uad11\uc8fc\uad11\uc5ed\uc2dc \ubd81\uad6c \uc11c\ud558\ub85c 185 2\uce35 (\uc624\uce58\ub3d9)", "phone":"062-269-7528", "Examination_item":"\uad6c\uac15\uac80\uc9c4", "lat":126.90074, "lon":35.187459},
 {"id":328, "store_name":"\uc5f4\ub9b0\uc5d0\uc2a4\uce58\uacfc\uc758\uc6d0", "address":"\uad11\uc8fc\uad11\uc5ed\uc2dc \ubd81\uad6c \ubd81\ubb38\ub300\ub85c 144 3\uce35 (\uc6b4\uc554\ub3d9)", "phone":"062-512-7565", "Examination_item":"\uad6c\uac15\uac80\uc9c4", "lat":126.87341, "lon":35.182016},
 {"id":329, "store_name":"\uc608\uc05c\ubbf8\uc18c\uce58\uacfc\uc758\uc6d0", "address":"\uad11\uc8fc\uad11\uc5ed\uc2dc \ubd81\uad6c \ucca8\ub2e8\uc5f0\uc2e0\ub85c 217 2\uce35 205\ud638 (\uc2e0\uc6a9\ub3d9, \uc911\ud765S\ud074\ub798\uc2a4 121\ub3d9 \ub2e8\uc9c0\uc0c1\uac00 )", "phone":"062-571-2870", "Examination_item":"\uad6c\uac15\uac80\uc9c4", "lat":126.860175, "lon":35.211475},
 {"id":330, "store_name":"\uc608\uc190\uce58\uacfc\uc758\uc6d0", "address":"\uad11\uc8fc\uad11\uc5ed\uc2dc \ubd81\uad6c \uc591\uc0b0\ud0dd\uc9c0\uc18c\ub85c 3 4\uce35 (\ubcf8\ucd0c\ub3d9)", "phone":"062-573-2807", "Examination_item":"\uad6c\uac15\uac80\uc9c4", "lat":126.881784, "lon":35.212641},
 {"id":331, "store_name":"\uc608\uc77c\uce58\uacfc\uc758\uc6d0", "address":"\uad11\uc8fc\uad11\uc5ed\uc2dc \ubd81\uad6c \uc124\uc8fd\ub85c 565 2\uce35 (\uc77c\uace1\ub3d9, \ud55c\uad6d\uc544\ud30c\ud2b8\uc0c1\uac00)", "phone":"062-573-8275", "Examination_item":"\uad6c\uac15\uac80\uc9c4", "lat":126.896627, "lon":35.209857},
 {"id":332, "store_name":"\uc624\uc81c\uc11d\uccb4\uacfc\uc758\uc6d0", "address":"\uad11\uc8fc\uad11\uc5ed\uc2dc \ubd81\uad6c \uc11c\ud558\ub85c 175 3\uce35 (\uc624\uce58\ub3d9)", "phone":"062-265-2875", "Examination_item":"\uad6c\uac15\uac80\uc9c4", "lat":126.89984, "lon":35.187433},
 {"id":333, "store_name":"\uc624\uce58\uaf2c\ub9c8\uce58\uacfc\uc758\uc6d0", "address":"\uad11\uc8fc\uad11\uc5ed\uc2dc \ubd81\uad6c \uc124\uc8fd\ub85c 346 2\uce35 (\uc624\uce58\ub3d9, \ubd81\uad6c\ubbf8\ub798\uc544\ub3d9\ubcd1\uc6d0)", "phone":"062-251-7522", "Examination_item":"\uad6c\uac15\uac80\uc9c4", "lat":126.899571, "lon":35.190324},
 {"id":334, "store_name":"\uc624\uce58\ud0d1\uce58\uacfc\uc758\uc6d0", "address":"\uad11\uc8fc\uad11\uc5ed\uc2dc \ubd81\uad6c \uc124\uc8fd\ub85c 334 4\uce35 (\uc624\uce58\ub3d9)", "phone":"062-511-6979", "Examination_item":"\uad6c\uac15\uac80\uc9c4", "lat":126.899376, "lon":35.189276},
 {"id":335, "store_name":"\uc6a9\ub450\uce58\uacfc\uc758\uc6d0", "address":"\uad11\uc8fc\uad11\uc5ed\uc2dc \ubd81\uad6c \ud558\uc11c\ub85c 416 2\uce35 (\uc591\uc0b0\ub3d9)", "phone":"062-573-7528", "Examination_item":"\uad6c\uac15\uac80\uc9c4", "lat":126.874819, "lon":35.212018},
 {"id":336, "store_name":"\uc6a9\ubd09\uc6b0\ub9ac\uce58\uacfc\uc758\uc6d0", "address":"\uad11\uc8fc\uad11\uc5ed\uc2dc \ubd81\uad6c \uc6a9\ubd09\ud0dd\uc9c0\ub85c 39 305,306\ud638 (\uc6a9\ubd09\ub3d9)", "phone":"062-524-2119", "Examination_item":"\uad6c\uac15\uac80\uc9c4", "lat":126.890997, "lon":35.178852},
 {"id":337, "store_name":"\uc6a9\ubd09\uce58\uacfc\uc758\uc6d0", "address":"\uad11\uc8fc\uad11\uc5ed\uc2dc \ubd81\uad6c \uc6a9\ubd09\ud0dd\uc9c0\ub85c 95 2\uce35 (\uc6a9\ubd09\ub3d9)", "phone":"062-531-2828", "Examination_item":"\uad6c\uac15\uac80\uc9c4", "lat":126.89695, "lon":35.178672},
 {"id":338, "store_name":"\uc6a9\ubd09\ud37c\uc2a4\ud2b8\uce58\uacfc\uc758\uc6d0", "address":"\uad11\uc8fc\uad11\uc5ed\uc2dc \ubd81\uad6c \ube44\uc5d4\ub0a0\ub808\ub85c 75 3\uce35 (\uc6a9\ubd09\ub3d9)", "phone":"062-523-7528", "Examination_item":"\uad6c\uac15\uac80\uc9c4", "lat":126.889794, "lon":35.178499},
 {"id":339, "store_name":"\uc6b0\uc554\uce58\uacfc\uc758\uc6d0", "address":"\uad11\uc8fc\uad11\uc5ed\uc2dc \ubd81\uad6c \ub3d9\ubb38\ub300\ub85c248\ubc88\uae38 12 2,3\uce35 (\uac01\ud654\ub3d9)", "phone":"062-264-2822", "Examination_item":"\uad6c\uac15\uac80\uc9c4", "lat":126.933325, "lon":35.183523},
 {"id":340, "store_name":"\uc6b4\uc554\ubbf8\uc18c\uce58\uacfc\uc758\uc6d0", "address":"\uad11\uc8fc\uad11\uc5ed\uc2dc \ubd81\uad6c \ubd81\ubb38\ub300\ub85c 89 206\ud638 (\uc6b4\uc554\ub3d9, \ube14\ub8e8\ubc0d3\ucc28\uc0c1\uac00)", "phone":"062-513-2875", "Examination_item":"\uad6c\uac15\uac80\uc9c4", "lat":126.876847, "lon":35.177974},
 {"id":341, "store_name":"\uc6b4\uc554\ud55c\uad6d\uce58\uacfc\uc758\uc6d0", "address":"\uad11\uc8fc\uad11\uc5ed\uc2dc \ubd81\uad6c \ubd81\ubb38\ub300\ub85c 191 2\uce35 (\uc6b4\uc554\ub3d9)", "phone":"062-608-8228", "Examination_item":"\uad6c\uac15\uac80\uc9c4", "lat":126.869797, "lon":35.185227},
 {"id":342, "store_name":"\uc704\ub4dc\uce58\uacfc\uc758\uc6d0", "address":"\uad11\uc8fc\uad11\uc5ed\uc2dc \ubd81\uad6c \ucca8\ub2e8\uc5f0\uc2e0\ub85c 105 \uc138\uc0c1\uba54\ub514\uceec\ube4c\ub529 3\uce35 (\uc2e0\uc6a9\ub3d9)", "phone":"062-572-2275", "Examination_item":"\uad6c\uac15\uac80\uc9c4", "lat":126.864033, "lon":35.207347},
 {"id":343, "store_name":"\uc724\uce58\uacfc\uc758\uc6d0", "address":"\uad11\uc8fc\uad11\uc5ed\uc2dc \ubd81\uad6c \ud558\uc11c\ub85c 424 \uc6d4\uacc4\uc218\ud0c0\uc6cc 402,403\ud638 (\uc6a9\ub450\ub3d9)", "phone":"062-574-2870", "Examination_item":"\uad6c\uac15\uac80\uc9c4", "lat":126.875072, "lon":35.21275},
 {"id":344, "store_name":"\uc740\uce58\uacfc\uc758\uc6d0", "address":"\uad11\uc8fc\uad11\uc5ed\uc2dc \ubd81\uad6c \ubb38\uc0b0\ub85c 27 2\uce35 (\ubb38\ud765\ub3d9)", "phone":"062-251-2090", "Examination_item":"\uad6c\uac15\uac80\uc9c4", "lat":126.922154, "lon":35.184686},
 {"id":345, "store_name":"\uc740\ud61c\uce58\uacfc\uc758\uc6d0", "address":"\uad11\uc8fc\uad11\uc5ed\uc2dc \ubd81\uad6c \ucca8\ub2e8\uc5f0\uc2e0\ub85c91\ubc88\uae38 20-14 \ub9cc\uac15\ube4c\ub529 2\uce35 (\uc2e0\uc6a9\ub3d9)", "phone":"062-574-2270", "Examination_item":"\uad6c\uac15\uac80\uc9c4", "lat":126.862429, "lon":35.207341},
 {"id":346, "store_name":"\uc774\ub808\uce58\uacfc\uc758\uc6d0", "address":"\uad11\uc8fc\uad11\uc5ed\uc2dc \ubd81\uad6c \uc591\uc0b0\ub85c 54 4\uce35 (\uc591\uc0b0\ub3d9)", "phone":"062-572-2888", "Examination_item":"\uad6c\uac15\uac80\uc9c4", "lat":126.88026, "lon":35.210094},
 {"id":347, "store_name":"\uc774\ubc31\ud638\uce58\uacfc\uc758\uc6d0", "address":"\uad11\uc8fc\uad11\uc5ed\uc2dc \ubd81\uad6c \uc124\uc8fd\ub85c315\ubc88\uae38 1 301\ud638 (\ub9e4\uace1\ub3d9)", "phone":"062-522-0205", "Examination_item":"\uad6c\uac15\uac80\uc9c4", "lat":126.898192, "lon":35.187517},
 {"id":348, "store_name":"\uc774\uc0ac\ub791\uce58\uacfc\uc758\uc6d0", "address":"\uad11\uc8fc\uad11\uc5ed\uc2dc \ubd81\uad6c \ub9e4\uace1\ub85c 56 3\uce35 (\ub9e4\uace1\ub3d9, \uc911\uc559\ube4c\ub529)", "phone":"062-364-2875", "Examination_item":"\uad6c\uac15\uac80\uc9c4", "lat":126.894117, "lon":35.190049},
 {"id":349, "store_name":"\uc774\uc0c1\uce58\uacfc\uc758\uc6d0", "address":"\uad11\uc8fc\uad11\uc5ed\uc2dc \ubd81\uad6c \ub3d9\ubb38\ub300\ub85c 111 5\uce35 (\uc6b0\uc0b0\ub3d9)", "phone":"062-262-4300", "Examination_item":"\uad6c\uac15\uac80\uc9c4", "lat":126.924938, "lon":35.173389},
 {"id":350, "store_name":"\uc774\uc624\uce58\uacfc\uc758\uc6d0", "address":"\uad11\uc8fc\uad11\uc5ed\uc2dc \ubd81\uad6c \uc11c\ud558\ub85c 129 3\uce35 (\ub9e4\uace1\ub3d9)", "phone":"062-573-2228", "Examination_item":"\uad6c\uac15\uac80\uc9c4", "lat":126.894688, "lon":35.187611},
 {"id":351, "store_name":"\uc774\uc74c\uce58\uacfc\uc758\uc6d0", "address":"\uad11\uc8fc\uad11\uc5ed\uc2dc \ubd81\uad6c \ud558\uc11c\ub85c 477 (\ubcf8\ucd0c\ub3d9)", "phone":"062-710-2275", "Examination_item":"\uad6c\uac15\uac80\uc9c4", "lat":126.877119, "lon":35.217231},
 {"id":352, "store_name":"\uc77c\uace1\uc0ac\ub791\uce58\uacfc\uc758\uc6d0", "address":"\uad11\uc8fc\uad11\uc5ed\uc2dc \ubd81\uad6c \uc124\uc8fd\ub85c 517 2\uce35 (\uc77c\uace1\ub3d9, \uc77c\uace1\uc13c\ud130\ube4c\ub529)", "phone":"062-574-2875", "Examination_item":"\uad6c\uac15\uac80\uc9c4", "lat":126.897293, "lon":35.205275},
 {"id":353, "store_name":"\uc77c\uace1\uc6b0\ub9ac\uce58\uacfc\uc758\uc6d0", "address":"\uad11\uc8fc\uad11\uc5ed\uc2dc \ubd81\uad6c \uc124\uc8fd\ub85c 512 2\uce35 (\uc77c\uace1\ub3d9)", "phone":"062-576-2872", "Examination_item":"\uad6c\uac15\uac80\uc9c4", "lat":126.898254, "lon":35.204851},
 {"id":354, "store_name":"\uc804\uae30\ubc94\uce58\uacfc\uc758\uc6d0", "address":"\uad11\uc8fc\uad11\uc5ed\uc2dc \ubd81\uad6c \ubd81\ubb38\ub300\ub85c 161 2\uce35 (\uc6b4\uc554\ub3d9)", "phone":"062-514-2875", "Examination_item":"\uad6c\uac15\uac80\uc9c4", "lat":126.871412, "lon":35.182827},
 {"id":355, "store_name":"\uc804\ub0a8\ub300\ud559\uad50\uce58\uacfc\ubcd1\uc6d0", "address":"\uad11\uc8fc\uad11\uc5ed\uc2dc \ubd81\uad6c \uc6a9\ubd09\ub85c 33 (\uc6a9\ubd09\ub3d9)", "phone":"062-530-5511", "Examination_item":"\uad6c\uac15\uac80\uc9c4", "lat":126.907602, "lon":35.176813},
 {"id":356, "store_name":"\uc815\ubb38\uce58\uacfc\uc758\uc6d0", "address":"\uad11\uc8fc\uad11\uc5ed\uc2dc \ubd81\uad6c \uc11c\uc554\ub300\ub85c 39 2\uce35 (\uc6b4\uc554\ub3d9)", "phone":"062-528-2310", "Examination_item":"\uad6c\uac15\uac80\uc9c4", "lat":126.889113, "lon":35.172913},
 {"id":357, "store_name":"\uc815\ud0dc\ud658\uce58\uacfc\uc758\uc6d0", "address":"\uad11\uc8fc\uad11\uc5ed\uc2dc \ubd81\uad6c \uad70\uc655\ub85c 159 2\uce35 (\ub450\uc554\ub3d9)", "phone":"062-267-2828", "Examination_item":"\uad6c\uac15\uac80\uc9c4", "lat":126.933121, "lon":35.175535},
 {"id":358, "store_name":"\uc88b\uc740\uc774\uce58\uacfc\uc758\uc6d0", "address":"\uad11\uc8fc\uad11\uc5ed\uc2dc \ubd81\uad6c \uc800\ubd88\ub85c69\ubc88\uae38 40 \uc6a9\ubd09\uae08\ud638\uc544\ud30c\ud2b8 102\ub3d9 \uc0c1\uac00 2\uce35 201\ud638 (\uc6a9\ubd09\ub3d9, \uae08\ud638\uc544\ud30c\ud2b8)", "phone":"062-447-2875", "Examination_item":"\uad6c\uac15\uac80\uc9c4", "lat":126.891103, "lon":35.180773},
 {"id":359, "store_name":"\uc88b\uc740\uce58\uacfc\uc758\uc6d0", "address":"\uad11\uc8fc\uad11\uc5ed\uc2dc \ubd81\uad6c \uc0bc\uc815\ub85c 112 201\ud638 (\ub450\uc554\ub3d9, \ub3d9\uc0b0\uc0c1\uac00)", "phone":"062-269-2875", "Examination_item":"\uad6c\uac15\uac80\uc9c4", "lat":126.936423, "lon":35.1724},
 {"id":360, "store_name":"\uc9c0\ud61c\uce58\uacfc\uc758\uc6d0", "address":"\uad11\uc8fc\uad11\uc5ed\uc2dc \ubd81\uad6c \ud558\uc11c\ub85c 414 5\uce35 (\uc591\uc0b0\ub3d9)", "phone":"062-352-2875", "Examination_item":"\uad6c\uac15\uac80\uc9c4", "lat":126.8747, "lon":35.211863},
 {"id":361, "store_name":"\uc9c4\uce58\uacfc\uc758\uc6d0", "address":"\uad11\uc8fc\uad11\uc5ed\uc2dc \ubd81\uad6c \ub9e4\uace1\ub85c 40 2\uce35 (\ub9e4\uace1\ub3d9)", "phone":"062-573-2875", "Examination_item":"\uad6c\uac15\uac80\uc9c4", "lat":126.894512, "lon":35.188493},
 {"id":362, "store_name":"\ucc38\uc870\uc740\uce58\uacfc\uc758\uc6d0", "address":"\uad11\uc8fc\uad11\uc5ed\uc2dc \ubd81\uad6c \ubd81\ubb38\ub300\ub85c 146 2\uce35 (\uc6b4\uc554\ub3d9)", "phone":"062-525-7528", "Examination_item":"\uad6c\uac15\uac80\uc9c4", "lat":126.873113, "lon":35.182067},
 {"id":363, "store_name":"\ucca8\ub2e8\ub9ac\ub354\uc2a4\uce58\uacfc\uc758\uc6d0", "address":"\uad11\uc8fc\uad11\uc5ed\uc2dc \ubd81\uad6c \ucca8\ub2e8\uc5f0\uc2e0\ub85c 97 3\uce35 (\uc2e0\uc6a9\ub3d9)", "phone":"062-572-7528", "Examination_item":"\uad6c\uac15\uac80\uc9c4", "lat":126.864032, "lon":35.20659},
 {"id":364, "store_name":"\ucca8\ub2e8\ubca0\uc2a4\ud2b8\uce58\uacfc\uc758\uc6d0", "address":"\uad11\uc8fc\uad11\uc5ed\uc2dc \ubd81\uad6c \ucca8\ub2e8\uc5f0\uc2e0\ub85c 261 2\uce35 (\uc2e0\uc6a9\ub3d9)", "phone":"062-571-2802", "Examination_item":"\uad6c\uac15\uac80\uc9c4", "lat":126.859058, "lon":35.207327},
 {"id":365, "store_name":"\ucca8\ub2e8\uc608\ubcf8\uce58\uacfc\uc758\uc6d0", "address":"\uad11\uc8fc\uad11\uc5ed\uc2dc \ubd81\uad6c \ucca8\ub2e8\uc5f0\uc2e0\ub85c 25 113~115\ud638 (\uc5f0\uc81c\ub3d9)", "phone":"062-574-2880", "Examination_item":"\uad6c\uac15\uac80\uc9c4", "lat":126.863078, "lon":35.200199},
 {"id":366, "store_name":"\ud0b4\uc2a4\uce58\uacfc\uc758\uc6d0", "address":"\uad11\uc8fc\uad11\uc5ed\uc2dc \ubd81\uad6c \ubd81\ubb38\ub300\ub85c 153 \uc0ac\uc6b0\ub51439\ube4c\ub529 (\uc6b4\uc554\ub3d9)", "phone":"062-351-2842", "Examination_item":"\uad6c\uac15\uac80\uc9c4", "lat":126.872154, "lon":35.18232},
 {"id":367, "store_name":"\ud0c4\ud0c4\uce58\uacfc\uc758\uc6d0", "address":"\uad11\uc8fc\uad11\uc5ed\uc2dc \ubd81\uad6c \uad70\uc655\ub85c 64 (\ub450\uc554\ub3d9)", "phone":"062-251-2889", "Examination_item":"\uad6c\uac15\uac80\uc9c4", "lat":126.93284, "lon":35.166861},
 {"id":368, "store_name":"\ud2bc\ud2bc\uc774\uc5b4\ub9b0\uc774\uce58\uacfc\uc758\uc6d0", "address":"\uad11\uc8fc\uad11\uc5ed\uc2dc \ubd81\uad6c \ud558\uc11c\ub85c 400 2\uce35 (\uc591\uc0b0\ub3d9)", "phone":"062-522-2875", "Examination_item":"\uad6c\uac15\uac80\uc9c4", "lat":126.874652, "lon":35.210592},
 {"id":369, "store_name":"\ud504\ub77c\uc784\uce58\uacfc\uc758\uc6d0", "address":"\uad11\uc8fc\uad11\uc5ed\uc2dc \ubd81\uad6c \uc11c\ud558\ub85c 369 3\uce35 (\ubb38\ud765\ub3d9, \uc14b\ud130\ucf54\uc544)", "phone":"062-267-7528", "Examination_item":"\uad6c\uac15\uac80\uc9c4", "lat":126.92098, "lon":35.186289},
 {"id":370, "store_name":"\ud558\ub098\uc5b4\ub9b0\uc774\uce58\uacfc\uc758\uc6d0", "address":"\uad11\uc8fc\uad11\uc5ed\uc2dc \ubd81\uad6c \ucca8\ub2e8\uc5f0\uc2e0\ub85c108\ubc88\uae38 22 (\uc2e0\uc6a9\ub3d9)", "phone":"062-447-4475", "Examination_item":"\uad6c\uac15\uac80\uc9c4", "lat":126.865504, "lon":35.207352},
 {"id":371, "store_name":"\ud558\ub298\uce58\uacfc\uc758\uc6d0", "address":"\uad11\uc8fc\uad11\uc5ed\uc2dc \ubd81\uad6c \ub3d9\ubb38\ub300\ub85c 2 (\ud48d\ud5a5\ub3d9, 603-24)", "phone":"062-529-2275", "Examination_item":"\uad6c\uac15\uac80\uc9c4", "lat":126.919868, "lon":35.164943},
 {"id":372, "store_name":"\ud55c\uacb0\uce58\uacfc\uc758\uc6d0", "address":"\uad11\uc8fc\uad11\uc5ed\uc2dc \ubd81\uad6c \uc6b0\uce58\ub85c 60 2\uce35 (\uc911\ud765\ub3d9)", "phone":"062-528-1175", "Examination_item":"\uad6c\uac15\uac80\uc9c4", "lat":126.912554, "lon":35.172648},
 {"id":373, "store_name":"\ud55c\ube5b\ubd80\ubd80\uce58\uacfc\uc758\uc6d0", "address":"\uad11\uc8fc\uad11\uc5ed\uc2dc \ubd81\uad6c \ube44\uc5d4\ub0a0\ub808\ub85c 93 3\uce35 (\uc6a9\ubd09\ub3d9)", "phone":"062-512-0028", "Examination_item":"\uad6c\uac15\uac80\uc9c4", "lat":126.889872, "lon":35.180095},
 {"id":374, "store_name":"\ud55c\ube5b\uce58\uacfc\uc758\uc6d0", "address":"\uad11\uc8fc\uad11\uc5ed\uc2dc \ubd81\uad6c \ub3d9\ubb38\ub300\ub85c 98 2\uce35 (\ub450\uc554\ub3d9)", "phone":"062-264-2275", "Examination_item":"\uad6c\uac15\uac80\uc9c4", "lat":126.924605, "lon":35.172034},
 {"id":375, "store_name":"\ud55c\uc6b0\ub9ac\uce58\uacfc\uc758\uc6d0", "address":"\uad11\uc8fc\uad11\uc5ed\uc2dc \ubd81\uad6c \uad70\uc655\ub85c 199 2\uce35 (\uac01\ud654\ub3d9)", "phone":"062-269-8275", "Examination_item":"\uad6c\uac15\uac80\uc9c4", "lat":126.934978, "lon":35.178832},
 {"id":376, "store_name":"\ud589\ubcf5\ud55c\ubbfc\uce58\uacfc\uc758\uc6d0", "address":"\uad11\uc8fc\uad11\uc5ed\uc2dc \ubd81\uad6c \ubc18\ub8e1\ub85c27\ubc88\uae38 40 3\uce35 (\uc6a9\ubd09\ub3d9, \uc11d\uc815\ube4c\ub529)", "phone":"062-526-2804", "Examination_item":"\uad6c\uac15\uac80\uc9c4", "lat":126.901829, "lon":35.18079},
 {"id":377, "store_name":"\ud5c8\uce58\uacfc\uc758\uc6d0", "address":"\uad11\uc8fc\uad11\uc5ed\uc2dc \ubd81\uad6c \ubd81\ubb38\ub300\ub85c 97 2\uce35 (\uc6b4\uc554\ub3d9, \ud55c\ubbf8\uc1fc\ud551)", "phone":"062-522-7828", "Examination_item":"\uad6c\uac15\uac80\uc9c4", "lat":126.876173, "lon":35.178301},
 {"id":378, "store_name":"\ud654\uc774\ud2b8\uce58\uacfc\uc758\uc6d0", "address":"\uad11\uc8fc\uad11\uc5ed\uc2dc \ubd81\uad6c \ub3d9\ubb38\ub300\ub85c 102 3\uce35 (\ub450\uc554\ub3d9, \uc7a5\uc548\ube4c\ub529)", "phone":"062-252-2875", "Examination_item":"\uad6c\uac15\uac80\uc9c4", "lat":126.9248, "lon":35.172234},
 {"id":379, "store_name":"\ud6a8\ucc3d\uc694\uc591\ubcd1\uc6d0", "address":"\uad11\uc8fc\uad11\uc5ed\uc2dc \ubd81\uad6c \uc11c\uc554\ub300\ub85c 187 (\uc2e0\uc548\ub3d9)", "phone":"062-510-2080", "Examination_item":"\uad6c\uac15\uac80\uc9c4", "lat":126.904756, "lon":35.168846},
 {"id":380, "store_name":"\ud76c\ub9dd\uce58\uacfc\ubcd1\uc6d0", "address":"\uad11\uc8fc\uad11\uc5ed\uc2dc \ubd81\uad6c \ud558\uc11c\ub85c 433 2\uce35 (\uc6a9\ub450\ub3d9)", "phone":"062-571-2142", "Examination_item":"\uad6c\uac15\uac80\uc9c4", "lat":126.874995, "lon":35.213597},
 {"id":381, "store_name":"KS\ubcd1\uc6d0", "address":"\uad11\uc8fc\uad11\uc5ed\uc2dc \uad11\uc0b0\uad6c \uc655\ubc84\ub4e4\ub85c 220 (\uc218\uc644\ub3d9)", "phone":"062-975-9300", "Examination_item":"\uc77c\ubc18,\uc554\uac80\uc9c4,\uad6c\uac15\uac80\uc9c4,\uc601\uc720\uc544\uac80\uc9c4", "lat":126.833198, "lon":35.197905},
 {"id":382, "store_name":"\uad11\uc0b0\uc218\uc644\ubbf8\ub798\uc544\ub3d9\ubcd1\uc6d0", "address":"\uad11\uc8fc\uad11\uc5ed\uc2dc \uad11\uc0b0\uad6c \uc784\ubc29\uc6b8\ub300\ub85c 162 (\uc6b4\ub0a8\ub3d9, \uad11\uc0b0\ubbf8\ub798\uc544\ub3d9\ubcd1\uc6d0)", "phone":"062-605-2564", "Examination_item":"\uc77c\ubc18,\uc601\uc720\uc544\uac80\uc9c4", "lat":126.818125, "lon":35.175603},
 {"id":383, "store_name":"\uad11\uc0b0\ud558\ub098\uc544\ub3d9\ubcd1\uc6d0", "address":"\uad11\uc8fc\uad11\uc5ed\uc2dc \uad11\uc0b0\uad6c \uc7a5\uc2e0\ub85c 141 3~9\uce35 (\uc218\uc644\ub3d9)", "phone":"062-467-3300", "Examination_item":"\uc601\uc720\uc544\uac80\uc9c4", "lat":126.825632, "lon":35.191008},
 {"id":384, "store_name":"\uad11\uc8fc\ubcf4\ud6c8\ubcd1\uc6d0", "address":"\uad11\uc8fc\uad11\uc5ed\uc2dc \uad11\uc0b0\uad6c \ucca8\ub2e8\uc6d4\ubd09\ub85c 99 (\uc0b0\uc6d4\ub3d9)", "phone":"062-602-6301", "Examination_item":"\uc77c\ubc18,\uc554\uac80\uc9c4,\uad6c\uac15\uac80\uc9c4,\uc601\uc720\uc544\uac80\uc9c4,\ud559\uad50\ubc16\uccad\uc18c\ub144\uac80\uc9c4", "lat":126.849121, "lon":35.207936},
 {"id":385, "store_name":"\uadf8\ub9b0\ud544\uc18c\uc544\uccad\uc18c\ub144\uacfc\uc758\uc6d0", "address":"\uad11\uc8fc\uad11\uc5ed\uc2dc \uad11\uc0b0\uad6c \ud48d\uc601\ub85c329\ubc88\uae38 51 (\uc7a5\ub355\ub3d9,\ud734\uba3c\uc2dc\uc544 6\ub2e8\uc9c0 \uc0c1\uac00 201\ud638)", "phone":"062-470-7575", "Examination_item":"\uc601\uc720\uc544\uac80\uc9c4", "lat":126.81171, "lon":35.199264},
 {"id":386, "store_name":"\uae30\uc068\uc18c\uc544\uccad\uc18c\ub144\uacfc\uc758\uc6d0", "address":"\uad11\uc8fc\uad11\uc5ed\uc2dc \uad11\uc0b0\uad6c \ubaa9\ub828\ub85c153\ubc88\uae38 134 (\uc6b4\ub0a8\ub3d9)", "phone":"062-962-0678", "Examination_item":"\uc601\uc720\uc544\uac80\uc9c4", "lat":126.816096, "lon":35.177756},
 {"id":387, "store_name":"\uae40\ubbf8\uc815\uc18c\uc544\uccad\uc18c\ub144\uacfc\uc758\uc6d0", "address":"\uad11\uc8fc\uad11\uc5ed\uc2dc \uad11\uc0b0\uad6c \uc6a9\uc544\ub85c379\ubc88\uae38 49 2\uce35 (\uc0b0\uc815\ub3d9)", "phone":"062-962-7217", "Examination_item":"\uc601\uc720\uc544\uac80\uc9c4", "lat":126.801548, "lon":35.176396},
 {"id":388, "store_name":"\uae40\uc8fc\ud718\uc18c\uc544\uccad\uc18c\ub144\uacfc\uc758\uc6d0", "address":"\uad11\uc8fc\uad11\uc5ed\uc2dc \uad11\uc0b0\uad6c \uc6d4\uace1\uc0b0\uc815\ub85c 12 2\uce35 (\uc6b0\uc0b0\ub3d9, \ud558\ub0a8\uc8fc\uacf5\uc544\ud30c\ud2b8\uc0c1\uac00)", "phone":"062-952-7575", "Examination_item":"\uc601\uc720\uc544\uac80\uc9c4", "lat":126.803768, "lon":35.164997},
 {"id":389, "store_name":"\ub2e4\uc19c\uc18c\uc544\uccad\uc18c\ub144\uacfc\uc758\uc6d0", "address":"\uad11\uc8fc\uad11\uc5ed\uc2dc \uad11\uc0b0\uad6c \uc120\uc6b4\uc911\uc559\ub85c 56 305\ud638 (\uc120\uc554\ub3d9)", "phone":"062-943-7588", "Examination_item":"\uc601\uc720\uc544\uac80\uc9c4", "lat":126.777988, "lon":35.147848},
 {"id":390, "store_name":"\ubaa9\ud654\uc18c\uc544\uccad\uc18c\ub144\uacfc\uc758\uc6d0", "address":"\uad11\uc8fc\uad11\uc5ed\uc2dc \uad11\uc0b0\uad6c \ud558\ub0a8\ub300\ub85c 278 (\uc6b4\ub0a8\ub3d9)", "phone":"062-953-6525", "Examination_item":"\uc601\uc720\uc544\uac80\uc9c4", "lat":126.823842, "lon":35.178823},
 {"id":391, "store_name":"\ubc15\uac00\uc815\uc758\ud559\uacfc\uc758\uc6d0", "address":"\uad11\uc8fc\uad11\uc5ed\uc2dc \uad11\uc0b0\uad6c \uc5b4\ub4f1\ub300\ub85c665\ubc88\uae38 4 2\uce35 (\uc18c\ucd0c\ub3d9)", "phone":"062-941-0531", "Examination_item":"\uc601\uc720\uc544\uac80\uc9c4", "lat":126.791245, "lon":35.14488},
 {"id":392, "store_name":"\ubc15\uac00\uc815\uc758\ud559\uacfc\uc758\uc6d0", "address":"\uad11\uc8fc\uad11\uc5ed\uc2dc \uad11\uc0b0\uad6c \uc784\ubc29\uc6b8\ub300\ub85c 142-12 201,203\ud638 (\uc6b4\ub0a8\ub3d9, \uc0bc\uc131\uc544\ud30c\ud2b8)", "phone":"062-951-7582", "Examination_item":"\uc601\uc720\uc544\uac80\uc9c4", "lat":126.81982, "lon":35.173015},
 {"id":393, "store_name":"\ube44\uc544\uc5f0\ud569\ub0b4\uacfc\uc758\uc6d0", "address":"\uad11\uc8fc\uad11\uc5ed\uc2dc \uad11\uc0b0\uad6c \ube44\uc544\uc911\uc559\ub85c31\ubc88\uae38 9 (\ube44\uc544\ub3d9)", "phone":"062-955-3575", "Examination_item":"\uc77c\ubc18,\uc554\uac80\uc9c4,\uc601\uc720\uc544\uac80\uc9c4", "lat":126.824401, "lon":35.221562},
 {"id":394, "store_name":"\uc218\uc644\uc13c\ud2b8\ub7f4\ubcd1\uc6d0", "address":"\uad11\uc8fc\uad11\uc5ed\uc2dc \uad11\uc0b0\uad6c \uc218\uc644\ub85c 6 \ub098, \uac00 1.5.6\uce35\ub3d9 (\uc2e0\uac00\ub3d9)", "phone":"062-950-9797", "Examination_item":"\uc77c\ubc18,\uc554\uac80\uc9c4,\uc601\uc720\uc544\uac80\uc9c4", "lat":126.829452, "lon":35.185754},
 {"id":395, "store_name":"\uc2e0\uac00\ubcd1\uc6d0", "address":"\uad11\uc8fc\uad11\uc5ed\uc2dc \uad11\uc0b0\uad6c \ubaa9\ub828\ub85c 316 (\uc2e0\uac00\ub3d9)", "phone":"062-610-8200", "Examination_item":"\uc77c\ubc18,\uc554\uac80\uc9c4,\uad6c\uac15\uac80\uc9c4,\uc601\uc720\uc544\uac80\uc9c4,\ud559\uad50\ubc16\uccad\uc18c\ub144\uac80\uc9c4", "lat":126.829681, "lon":35.177428},
 {"id":396, "store_name":"\uc6b0\ub9ac\uc18c\uc544\uccad\uc18c\ub144\uacfc\uc758\uc6d0", "address":"\uad11\uc8fc\uad11\uc5ed\uc2dc \uad11\uc0b0\uad6c \uc6d4\uacc4\ub85c 100 2\uce35 (\uc6d4\uacc4\ub3d9)", "phone":"062-971-7582", "Examination_item":"\uc601\uc720\uc544\uac80\uc9c4", "lat":126.836559, "lon":35.213252},
 {"id":397, "store_name":"\uc6b4\ub0a8\ud478\ub978\uc18c\uc544\uccad\uc18c\ub144\uacfc\uc758\uc6d0", "address":"\uad11\uc8fc\uad11\uc5ed\uc2dc \uad11\uc0b0\uad6c \ubaa9\ub828\ub85c153\ubc88\uae38 85 2\uce35 (\uc6b4\ub0a8\ub3d9, \uc11d\uacbd\ube4c\ub529)", "phone":"062-961-7575", "Examination_item":"\uc601\uc720\uc544\uac80\uc9c4", "lat":126.814434, "lon":35.17581},
 {"id":398, "store_name":"\uc774\uc9c0\uc548\uc18c\uc544\uccad\uc18c\ub144\uacfc\uc758\uc6d0", "address":"\uad11\uc8fc\uad11\uc5ed\uc2dc \uad11\uc0b0\uad6c \uc120\uc6b4\uc911\uc559\ub85c 46 3\uce35 (\uc120\uc554\ub3d9)", "phone":"062-943-3322", "Examination_item":"\uc601\uc720\uc544\uac80\uc9c4", "lat":126.77704, "lon":35.148091},
 {"id":399, "store_name":"\uc815\ud574\uc728\ud0a4\uc988\uc5d4\uc824\uc18c\uc544\uccad\uc18c\ub144\uacfc\uc758\uc6d0", "address":"\uad11\uc8fc\uad11\uc5ed\uc2dc \uad11\uc0b0\uad6c \uc655\ubc84\ub4e4\ub85c251\ubc88\uae38 27 1\ub3d9 2\uce35 202\ud638 (\uc2e0\ucc3d\ub3d9, \uc2e0\ucc3d5\ucc28\ud638\ubc18\ubca0\ub974\ub514\uc6c0 \uc0c1\uac00)", "phone":"062-959-0958", "Examination_item":"\uc601\uc720\uc544\uac80\uc9c4", "lat":126.836542, "lon":35.19828},
 {"id":400, "store_name":"\uc911\uc559\uc544\ub3d9\ubcd1\uc6d0", "address":"\uad11\uc8fc\uad11\uc5ed\uc2dc \uad11\uc0b0\uad6c \ubaa9\ub828\ub85c 379 (\uc2e0\uac00\ub3d9)", "phone":"062-960-7000", "Examination_item":"\uc601\uc720\uc544\uac80\uc9c4", "lat":126.832014, "lon":35.182426},
 {"id":401, "store_name":"\ucca8\ub2e8\uc18c\uc544\uccad\uc18c\ub144\uacfc\uc758\uc6d0", "address":"\uad11\uc8fc\uad11\uc5ed\uc2dc \uad11\uc0b0\uad6c \ucca8\ub2e8\uc911\uc559\ub85c181\ubc88\uae38 42-5 109\ud638 (\uc6d4\uacc4\ub3d9)", "phone":"062-971-3223", "Examination_item":"\uc601\uc720\uc544\uac80\uc9c4", "lat":126.835273, "lon":35.220225},
 {"id":402, "store_name":"\ucca8\ub2e8\uc740\ub0b4\uacfc\uc758\uc6d0", "address":"\uad11\uc8fc\uad11\uc5ed\uc2dc \uad11\uc0b0\uad6c \ucca8\ub2e8\uc911\uc559\ub85c 96 (\uc6d4\uacc4\ub3d9)", "phone":"062-974-2266", "Examination_item":"\uc77c\ubc18,\uc554\uac80\uc9c4,\uc601\uc720\uc544\uac80\uc9c4", "lat":126.843459, "lon":35.21384},
 {"id":403, "store_name":"\ucca8\ub2e8\uc885\ud569\ubcd1\uc6d0", "address":"\uad11\uc8fc\uad11\uc5ed\uc2dc \uad11\uc0b0\uad6c \ucca8\ub2e8\uc911\uc559\ub85c170\ubc88\uae38 59 (\uc30d\uc554\ub3d9)", "phone":"062-601-8329", "Examination_item":"\uc77c\ubc18,\uc554\uac80\uc9c4,\uad6c\uac15\uac80\uc9c4,\uc601\uc720\uc544\uac80\uc9c4,\ud559\uad50\ubc16\uccad\uc18c\ub144\uac80\uc9c4", "lat":126.8453, "lon":35.221114},
 {"id":404, "store_name":"\ucca8\ub2e8\uc990\uac70\uc6b4\ub0b4\uacfc\uc758\uc6d0", "address":"\uad11\uc8fc\uad11\uc5ed\uc2dc \uad11\uc0b0\uad6c \uc784\ubc29\uc6b8\ub300\ub85c 805 4\uce35 (\uc30d\uc554\ub3d9, \ucca8\ub2e8\uba54\ub514\uce7c\ube4c\ub529)", "phone":"062-972-7585", "Examination_item":"\uc77c\ubc18,\uc554\uac80\uc9c4,\uc601\uc720\uc544\uac80\uc9c4", "lat":126.846494, "lon":35.218241},
 {"id":405, "store_name":"\ud0a4\ud070\ub098\ubb34\uc18c\uc544\uccad\uc18c\ub144\uacfc\uc758\uc6d0", "address":"\uad11\uc8fc\uad11\uc5ed\uc2dc \uad11\uc0b0\uad6c \uc0ac\uc554\ub85c340\ubc88\uae38 47 (\uc6d4\uace1\ub3d9,3\uce35)", "phone":"062-954-5004", "Examination_item":"\uc601\uc720\uc544\uac80\uc9c4", "lat":126.811377, "lon":35.175366},
 {"id":406, "store_name":"\ud558\ub098\ub85c\uc774\ube44\uc778\ud6c4\uacfc\uc758\uc6d0", "address":"\uad11\uc8fc\uad11\uc5ed\uc2dc \uad11\uc0b0\uad6c \ubaa9\ub828\ub85c153\ubc88\uae38 79 2\uce35 (\uc6b4\ub0a8\ub3d9)", "phone":"062-953-0001", "Examination_item":"\uc601\uc720\uc544\uac80\uc9c4", "lat":126.814385, "lon":35.175404},
 {"id":407, "store_name":"\ud558\ub098\uc544\ub3d9\ubcd1\uc6d0", "address":"\uad11\uc8fc\uad11\uc5ed\uc2dc \uad11\uc0b0\uad6c \uc784\ubc29\uc6b8\ub300\ub85c 784 (\uc6d4\uacc4\ub3d9)", "phone":"062-975-3300", "Examination_item":"\uc601\uc720\uc544\uac80\uc9c4", "lat":126.844146, "lon":35.217272},
 {"id":408, "store_name":"\ud558\ub0a8\uc131\uc2ec\ubcd1\uc6d0", "address":"\uad11\uc8fc\uad11\uc5ed\uc2dc \uad11\uc0b0\uad6c \uc6a9\uc544\ub85c 259 (\uc0b0\uc815\ub3d9)", "phone":"062-958-1263", "Examination_item":"\uc77c\ubc18,\uc554\uac80\uc9c4,\uad6c\uac15\uac80\uc9c4,\uc601\uc720\uc544\uac80\uc9c4,\ud559\uad50\ubc16\uccad\uc18c\ub144\uac80\uc9c4", "lat":126.800759, "lon":35.16659},
 {"id":409, "store_name":"\ud55c\ub9c8\uc74c\ubcd1\uc6d0", "address":"\uad11\uc8fc\uad11\uc5ed\uc2dc \uad11\uc0b0\uad6c \uc1a1\ub3c4\ub85c 160 3,4\uce35 (\ub3c4\uc0b0\ub3d9)", "phone":"062-940-9005", "Examination_item":"\uc601\uc720\uc544\uac80\uc9c4", "lat":126.792964, "lon":35.128772},
 {"id":410, "store_name":"\ud604\ub300\uc18c\uc544\uccad\uc18c\ub144\uacfc\uc758\uc6d0", "address":"\uad11\uc8fc\uad11\uc5ed\uc2dc \uad11\uc0b0\uad6c \uc2e0\ucc3d\ub85c 121 2\uce35 201\ud638 (\uc2e0\ucc3d\ub3d9)", "phone":"062-954-7500", "Examination_item":"\uc601\uc720\uc544\uac80\uc9c4", "lat":126.838065, "lon":35.196194},
 {"id":411, "store_name":"2080\uce58\uacfc\uc758\uc6d0", "address":"\uad11\uc8fc\uad11\uc5ed\uc2dc \uad11\uc0b0\uad6c \uc218\ub4f1\ub85c 258 301\ud638 (\uc2e0\uac00\ub3d9)", "phone":"062-955-2895", "Examination_item":"\uad6c\uac15\uac80\uc9c4", "lat":126.83728, "lon":35.184955},
 {"id":412, "store_name":"21\uc138\uae30\uce58\uacfc\uc758\uc6d0", "address":"\uad11\uc8fc\uad11\uc5ed\uc2dc \uad11\uc0b0\uad6c \ucca8\ub2e8\uc911\uc559\ub85c68\ubc88\uae38 99 2\uce35 (\uc0b0\uc6d4\ub3d9)", "phone":"062-971-2808", "Examination_item":"\uad6c\uac15\uac80\uc9c4", "lat":126.848444, "lon":35.212356},
 {"id":413, "store_name":"e\ud478\ub978\uce58\uacfc\uc758\uc6d0", "address":"\uad11\uc8fc\uad11\uc5ed\uc2dc \uad11\uc0b0\uad6c \ud48d\uc601\ub85c 37 301\ud638 (\uc6d4\uace1\ub3d9)", "phone":"062-962-2828", "Examination_item":"\uad6c\uac15\uac80\uc9c4", "lat":126.811596, "lon":35.175422},
 {"id":414, "store_name":"\uacfd\uc885\ud558\uce58\uacfc\uc758\uc6d0", "address":"\uad11\uc8fc\uad11\uc5ed\uc2dc \uad11\uc0b0\uad6c \uc0c1\ubb34\ub300\ub85c 202 3\uce35 (\uc1a1\uc815\ub3d9)", "phone":"062-941-5010", "Examination_item":"\uad6c\uac15\uac80\uc9c4", "lat":126.791665, "lon":35.137205},
 {"id":415, "store_name":"\uad11\uc0b0\ubbf8\ub798\uc544\ub3d9\uce58\uacfc\uc758\uc6d0", "address":"\uad11\uc8fc\uad11\uc5ed\uc2dc \uad11\uc0b0\uad6c \uc784\ubc29\uc6b8\ub300\ub85c 162 (\uc6b4\ub0a8\ub3d9,(302\ud638))", "phone":"062-951-0094", "Examination_item":"\uad6c\uac15\uac80\uc9c4", "lat":126.818125, "lon":35.175603},
 {"id":416, "store_name":"\uad7f\ubaa8\ub2dd\uce58\uacfc\uc758\uc6d0", "address":"\uad11\uc8fc\uad11\uc5ed\uc2dc \uad11\uc0b0\uad6c \uc2e0\ucc3d\ub85c161\ubc88\uae38 34 202.203\ud638 (\uc2e0\ucc3d\ub3d9, \uc2e0\ucc3d3\ucc28\ubd80\uc601\uc0ac\ub791\uc73c\ub85c)", "phone":"062-959-2804", "Examination_item":"\uad6c\uac15\uac80\uc9c4", "lat":126.839532, "lon":35.200336},
 {"id":417, "store_name":"\uadf8\ub9b0\uce58\uacfc\uc758\uc6d0", "address":"\uad11\uc8fc\uad11\uc5ed\uc2dc \uad11\uc0b0\uad6c \ubaa9\ub828\ub85c153\ubc88\uae38 124 203\ud638 (\uc6b4\ub0a8\ub3d9, \ub354\uc874\ube4c\ub529)", "phone":"062-961-2804", "Examination_item":"\uad6c\uac15\uac80\uc9c4", "lat":126.815114, "lon":35.177349},
 {"id":418, "store_name":"\uae30\ubd84\uc88b\uc740\uce58\uacfc\uc758\uc6d0", "address":"\uad11\uc8fc\uad11\uc5ed\uc2dc \uad11\uc0b0\uad6c \ud48d\uc601\ucca0\uae38\ub85c 12 3\uce35 302\ud638 (\uc6b0\uc0b0\ub3d9)", "phone":"062-955-7528", "Examination_item":"\uad6c\uac15\uac80\uc9c4", "lat":126.812454, "lon":35.162478},
 {"id":419, "store_name":"\uae40\uc218\ud604\uce58\uacfc\uc758\uc6d0", "address":"\uad11\uc8fc\uad11\uc5ed\uc2dc \uad11\uc0b0\uad6c \uc784\ubc29\uc6b8\ub300\ub85c 360-1 3\uce35 (\uc218\uc644\ub3d9)", "phone":"062-652-7582", "Examination_item":"\uad6c\uac15\uac80\uc9c4", "lat":126.824363, "lon":35.192195},
 {"id":420, "store_name":"\uae40\uc6a9\uc77c\uce58\uacfc\uc758\uc6d0", "address":"\uad11\uc8fc\uad11\uc5ed\uc2dc \uad11\uc0b0\uad6c \ucca8\ub2e8\uc911\uc559\ub85c 170 2\uce35 (\uc30d\uc554\ub3d9)", "phone":"062-971-2825", "Examination_item":"\uad6c\uac15\uac80\uc9c4", "lat":126.842113, "lon":35.220453},
 {"id":421, "store_name":"\uae40\ud604\uc6b0\uce58\uacfc\uc758\uc6d0", "address":"\uad11\uc8fc\uad11\uc5ed\uc2dc \uad11\uc0b0\uad6c \uc2e0\ucc3d\ub85c 118 3\uce35 (\uc2e0\ucc3d\ub3d9)", "phone":"062-953-2842", "Examination_item":"\uad6c\uac15\uac80\uc9c4", "lat":126.838447, "lon":35.195594},
 {"id":422, "store_name":"\ub098\ubb34\uce58\uacfc\uc758\uc6d0", "address":"\uad11\uc8fc\uad11\uc5ed\uc2dc \uad11\uc0b0\uad6c \ud48d\uc601\ub85c145\ubc88\uae38 102 (\ud751\uc11d\ub3d9)", "phone":"062-362-2875", "Examination_item":"\uad6c\uac15\uac80\uc9c4", "lat":126.809557, "lon":35.182766},
 {"id":423, "store_name":"\ub178\uae30\ud45c\uce58\uacfc\uc758\uc6d0", "address":"\uad11\uc8fc\uad11\uc5ed\uc2dc \uad11\uc0b0\uad6c \uad11\uc0b0\ub85c 48 (\uc1a1\uc815\ub3d9)", "phone":"062-944-0001", "Examination_item":"\uad6c\uac15\uac80\uc9c4", "lat":126.796612, "lon":35.13958},
 {"id":424, "store_name":"\ub274\uc695\ubbf8\ub798\uce58\uacfc\uc758\uc6d0", "address":"\uad11\uc8fc\uad11\uc5ed\uc2dc \uad11\uc0b0\uad6c \uc784\ubc29\uc6b8\ub300\ub85c 805 5\uce35 (\uc30d\uc554\ub3d9)", "phone":"062-971-2888", "Examination_item":"\uad6c\uac15\uac80\uc9c4", "lat":126.846494, "lon":35.218241},
 {"id":425, "store_name":"\ub298\ud478\ub978\uce58\uacfc\uc758\uc6d0", "address":"\uad11\uc8fc\uad11\uc5ed\uc2dc \uad11\uc0b0\uad6c \uc784\ubc29\uc6b8\ub300\ub85c 216 3\uce35 301\ud638 (\uc2e0\uac00\ub3d9)", "phone":"062-955-2874", "Examination_item":"\uad6c\uac15\uac80\uc9c4", "lat":126.81822, "lon":35.180435},
 {"id":426, "store_name":"\ub300\ub355\uce58\uacfc\uc758\uc6d0", "address":"\uad11\uc8fc\uad11\uc5ed\uc2dc \uad11\uc0b0\uad6c \uae08\ubd09\ub85c 113 2\uce35 (\uc6b0\uc0b0\ub3d9)", "phone":"062-941-2825", "Examination_item":"\uad6c\uac15\uac80\uc9c4", "lat":126.8111, "lon":35.152162},
 {"id":427, "store_name":"\ub300\ud559\uce58\uacfc\uc758\uc6d0", "address":"\uad11\uc8fc\uad11\uc5ed\uc2dc \uad11\uc0b0\uad6c \uc7a5\uc2e0\ub85c 62 (\uc7a5\ub355\ub3d9,6\uce35,7\uce35)", "phone":"062-961-0002", "Examination_item":"\uad6c\uac15\uac80\uc9c4", "lat":126.816943, "lon":35.190554},
 {"id":428, "store_name":"\ub354\uc0b0\ub73b\uce58\uacfc\uc758\uc6d0", "address":"\uad11\uc8fc\uad11\uc5ed\uc2dc \uad11\uc0b0\uad6c \ubaa9\ub828\ub85c 379 302\ud638 (\uc2e0\uac00\ub3d9)", "phone":"062-952-2882", "Examination_item":"\uad6c\uac15\uac80\uc9c4", "lat":126.832014, "lon":35.182426},
 {"id":429, "store_name":"\ub354\ud3b8\ud55c\uce58\uacfc\uc758\uc6d0", "address":"\uad11\uc8fc\uad11\uc5ed\uc2dc \uad11\uc0b0\uad6c \ud48d\uc601\ub85c 189 4\uce35 (\uc7a5\ub355\ub3d9)", "phone":"062-973-2275", "Examination_item":"\uad6c\uac15\uac80\uc9c4", "lat":126.813879, "lon":35.188316},
 {"id":430, "store_name":"\ub3d9\uadf8\ub77c\ubbf8\uce58\uacfc\uc758\uc6d0", "address":"\uad11\uc8fc\uad11\uc5ed\uc2dc \uad11\uc0b0\uad6c \uc1a1\uc815\ub85c1\ubc88\uae38 88 3\uce35 (\uc1a1\uc815\ub3d9)", "phone":"062-942-2875", "Examination_item":"\uad6c\uac15\uac80\uc9c4", "lat":126.795531, "lon":35.139966},
 {"id":431, "store_name":"\ub450\uc0b0\uce58\uacfc\uc758\uc6d0", "address":"\uad11\uc8fc\uad11\uc5ed\uc2dc \uad11\uc0b0\uad6c \uc6d4\uacc4\ub85c 117-21 205\ud638 (\uc6d4\uacc4\ub3d9)", "phone":"062-973-2875", "Examination_item":"\uad6c\uac15\uac80\uc9c4", "lat":126.836797, "lon":35.215021},
 {"id":432, "store_name":"\ub9ac\ub354\uc2a4\uce58\uacfc\uc758\uc6d0", "address":"\uad11\uc8fc\uad11\uc5ed\uc2dc \uad11\uc0b0\uad6c \ud48d\uc601\ub85c 261 (\uc7a5\ub355\ub3d9,3\uce35)", "phone":"062-654-5555", "Examination_item":"\uad6c\uac15\uac80\uc9c4", "lat":126.815324, "lon":35.19464},
 {"id":433, "store_name":"\uba54\ub514\ucf00\uc5b4\uce58\uacfc\uc758\uc6d0", "address":"\uad11\uc8fc\uad11\uc5ed\uc2dc \uad11\uc0b0\uad6c \uc6d4\uacc4\ub85c 223-8 110\ub3d9 2\uce35 209\ud638 (\uc30d\uc554\ub3d9, \uc911\ud765S\ud074\ub798\uc2a4 \ub9ac\ubc84\uc2dc\ud2f0 \uc8fc\uc0c1\ubcf5\ud569 \uc544\ud30c\ud2b8)", "phone":"062-974-2870", "Examination_item":"\uad6c\uac15\uac80\uc9c4", "lat":126.850541, "lon":35.213962},
 {"id":434, "store_name":"\ubbf8\ub2f4\uce58\uacfc\uc758\uc6d0", "address":"\uad11\uc8fc\uad11\uc5ed\uc2dc \uad11\uc0b0\uad6c \uc6a9\uc544\ub85c379\ubc88\uae38 2 3\uce35 (\ud558\ub0a8\ub3d9)", "phone":"062-953-2877", "Examination_item":"\uad6c\uac15\uac80\uc9c4", "lat":126.804126, "lon":35.17725},
 {"id":435, "store_name":"\ubbf8\uc0ac\ub791\uce58\uacfc\uc758\uc6d0", "address":"\uad11\uc8fc\uad11\uc5ed\uc2dc \uad11\uc0b0\uad6c \uc18c\ucd0c\ub85c 146 2\uce35 (\uc18c\ucd0c\ub3d9)", "phone":"062-941-7522", "Examination_item":"\uad6c\uac15\uac80\uc9c4", "lat":126.79232, "lon":35.157546},
 {"id":436, "store_name":"\ubbf8\uc18c\ub2f4\uce58\uacfc\uc758\uc6d0", "address":"\uad11\uc8fc\uad11\uc5ed\uc2dc \uad11\uc0b0\uad6c \uc2e0\ucc3d\ub85c 68 4\uce35 (\uc2e0\ucc3d\ub3d9, \ud30c\ub77c\ub2e4\uc774\uc2a4\ube4c\ub529)", "phone":"062-962-0022", "Examination_item":"\uad6c\uac15\uac80\uc9c4", "lat":126.837344, "lon":35.191311},
 {"id":437, "store_name":"\ubbf8\uc18c\ub9bc\uce58\uacfc\uc758\uc6d0", "address":"\uad11\uc8fc\uad11\uc5ed\uc2dc \uad11\uc0b0\uad6c \uc784\ubc29\uc6b8\ub300\ub85c 310 (\uc218\uc644\ub3d9,\uc544\uc774\ube44\ud0c0\uc6cc 2\uce35(204\ud638))", "phone":"062-955-7585", "Examination_item":"\uad6c\uac15\uac80\uc9c4", "lat":126.823264, "lon":35.18775},
 {"id":438, "store_name":"\ubbff\uc74c\uce58\uacfc\uc758\uc6d0", "address":"\uad11\uc8fc\uad11\uc5ed\uc2dc \uad11\uc0b0\uad6c \ud558\ub0a8\ub300\ub85c261\ubc88\uae38 8 2\uce35 (\uc2e0\uac00\ub3d9)", "phone":"062-959-2282", "Examination_item":"\uad6c\uac15\uac80\uc9c4", "lat":126.822606, "lon":35.180018},
 {"id":439, "store_name":"\ubc15\uc815\ub82c\uce58\uacfc\uc758\uc6d0", "address":"\uad11\uc8fc\uad11\uc5ed\uc2dc \uad11\uc0b0\uad6c \ud558\ub0a8\ub300\ub85c 290 (\uc6b4\ub0a8\ub3d9)", "phone":"062-952-5651", "Examination_item":"\uad6c\uac15\uac80\uc9c4", "lat":126.825358, "lon":35.178756},
 {"id":440, "store_name":"\ubc1d\uc744\u660e\uce58\uacfc\uc758\uc6d0", "address":"\uad11\uc8fc\uad11\uc5ed\uc2dc \uad11\uc0b0\uad6c \ud48d\uc601\ucca0\uae38\ub85c 20-4 (\uc6b0\uc0b0\ub3d9)", "phone":"062-962-2804", "Examination_item":"\uad6c\uac15\uac80\uc9c4", "lat":126.812831, "lon":35.162959},
 {"id":441, "store_name":"\ubcf8\uce58\uacfc\uc758\uc6d0", "address":"\uad11\uc8fc\uad11\uc5ed\uc2dc \uad11\uc0b0\uad6c \uc7a5\uc2e0\ub85c 136 5\uce35 501\ud638 (\uc218\uc644\ub3d9)", "phone":"062-526-0275", "Examination_item":"\uad6c\uac15\uac80\uc9c4", "lat":126.825048, "lon":35.190408},
 {"id":442, "store_name":"\ube44\uc804\uce58\uacfc\uc758\uc6d0", "address":"\uad11\uc8fc\uad11\uc5ed\uc2dc \uad11\uc0b0\uad6c \ud48d\uc601\ub85c329\ubc88\uae38 19 2\uce35 203\ud638 (\uc7a5\ub355\ub3d9)", "phone":"062-954-2758", "Examination_item":"\uad6c\uac15\uac80\uc9c4", "lat":126.813495, "lon":35.199588},
 {"id":443, "store_name":"\uc0c8\uc2e0\uac00\uce58\uacfc\uc758\uc6d0", "address":"\uad11\uc8fc\uad11\uc5ed\uc2dc \uad11\uc0b0\uad6c \ubaa9\ub828\ub85c 314 \uc2e0\uac00\ubcd1\uc6d0 1\uce35 (\uc2e0\uac00\ub3d9)", "phone":"062-716-2880", "Examination_item":"\uad6c\uac15\uac80\uc9c4", "lat":126.829313, "lon":35.177082},
 {"id":444, "store_name":"\uc11c\uc6b8\uc6b0\ub9ac\uc544\uc774\uce58\uacfc\uc758\uc6d0", "address":"\uad11\uc8fc\uad11\uc5ed\uc2dc \uad11\uc0b0\uad6c \uc784\ubc29\uc6b8\ub300\ub85c 321 \uc6b4\uc7ac\ube4c\ub529 5\uce35 (\uc218\uc644\ub3d9)", "phone":"062-710-2870", "Examination_item":"\uad6c\uac15\uac80\uc9c4", "lat":126.82283, "lon":35.188854},
 {"id":445, "store_name":"\uc120\uc6b4\uce58\uacfc\uc758\uc6d0", "address":"\uad11\uc8fc\uad11\uc5ed\uc2dc \uad11\uc0b0\uad6c \uc120\uc6b4\uc911\uc559\ub85c 46 4\uce35 401\ud638 (\uc120\uc554\ub3d9)", "phone":"062-946-2875", "Examination_item":"\uad6c\uac15\uac80\uc9c4", "lat":126.77704, "lon":35.148091},
 {"id":446, "store_name":"\uc120\uce58\uacfc\uc758\uc6d0", "address":"\uad11\uc8fc\uad11\uc5ed\uc2dc \uad11\uc0b0\uad6c \ucca8\ub2e8\uc911\uc559\ub85c181\ubc88\uae38 48 (\uc6d4\uacc4\ub3d9)", "phone":"062-971-7599", "Examination_item":"\uad6c\uac15\uac80\uc9c4", "lat":126.836275, "lon":35.220027},
 {"id":447, "store_name":"\uc138\uc815\uce58\uacfc\uc758\uc6d0", "address":"\uad11\uc8fc\uad11\uc5ed\uc2dc \uad11\uc0b0\uad6c \uc190\uc7ac\ub85c110\ubc88\uae38 45 (\ud558\ub0a8\ub3d9)", "phone":"062-959-7525", "Examination_item":"\uad6c\uac15\uac80\uc9c4", "lat":126.799351, "lon":35.176482},
 {"id":448, "store_name":"\uc1a1\uc815\ubd80\ubd80\uce58\uacfc\uc758\uc6d0", "address":"\uad11\uc8fc\uad11\uc5ed\uc2dc \uad11\uc0b0\uad6c \ub0b4\uc0c1\ub85c 2 2\uce35 (\uc1a1\uc815\ub3d9)", "phone":"062-944-2700", "Examination_item":"\uad6c\uac15\uac80\uc9c4", "lat":126.794661, "lon":35.140939},
 {"id":449, "store_name":"\uc1a1\uc815\uc0ac\ub791\uce58\uacfc\uc758\uc6d0", "address":"\uad11\uc8fc\uad11\uc5ed\uc2dc \uad11\uc0b0\uad6c \uc1a1\ub3c4\ub85c 232 \uc1a1\uc815\uc0ac\ub791\ubcd1\uc6d0 2\uce35 (\uc1a1\uc815\ub3d9)", "phone":"062-941-2828", "Examination_item":"\uad6c\uac15\uac80\uc9c4", "lat":126.797372, "lon":35.134188},
 {"id":450, "store_name":"\uc1a1\uc815\uc218\uce58\uacfc\uc758\uc6d0", "address":"\uad11\uc8fc\uad11\uc5ed\uc2dc \uad11\uc0b0\uad6c \uc1a1\uc815\ub85c 61 2\uce35 202\ud638 (\uc1a1\uc815\ub3d9)", "phone":"062-461-2875", "Examination_item":"\uad6c\uac15\uac80\uc9c4", "lat":126.797692, "lon":35.134759},
 {"id":451, "store_name":"\uc1a1\uc7a5\uc544\uac00\ud398\uce58\uacfc\uc758\uc6d0", "address":"\uad11\uc8fc\uad11\uc5ed\uc2dc \uad11\uc0b0\uad6c \ub0b4\uc0c1\ub85c 7 6\uce35 (\uc1a1\uc815\ub3d9)", "phone":"062-941-2804", "Examination_item":"\uad6c\uac15\uac80\uc9c4", "lat":126.795321, "lon":35.14082},
 {"id":452, "store_name":"\uc1a1\uc815\uc724\uce58\uacfc\uc758\uc6d0", "address":"\uad11\uc8fc\uad11\uc5ed\uc2dc \uad11\uc0b0\uad6c \ub0b4\uc0c1\ub85c 11 4\uce35 (\uc1a1\uc815\ub3d9)", "phone":"062-714-2804", "Examination_item":"\uad6c\uac15\uac80\uc9c4", "lat":126.795499, "lon":35.140641},
 {"id":453, "store_name":"\uc218\uc644\ub178\ube14\uce58\uacfc\uc758\uc6d0", "address":"\uad11\uc8fc\uad11\uc5ed\uc2dc \uad11\uc0b0\uad6c \uc784\ubc29\uc6b8\ub300\ub85c 334 7 , 8\uce35 (\uc218\uc644\ub3d9, \uc218\uc644\ub178\ube14\uce58\uacfc\uc758\uc6d0)", "phone":"062-955-2872", "Examination_item":"\uad6c\uac15\uac80\uc9c4", "lat":126.824189, "lon":35.189787},
 {"id":454, "store_name":"\uc218\uc644\ub354\uce58\uacfc\uc758\uc6d0", "address":"\uad11\uc8fc\uad11\uc5ed\uc2dc \uad11\uc0b0\uad6c \uc218\uc644\ub85c 6 (\uc2e0\uac00\ub3d9)", "phone":"062-959-2080", "Examination_item":"\uad6c\uac15\uac80\uc9c4", "lat":126.829452, "lon":35.185754},
 {"id":455, "store_name":"\uc218\uc644\ubbf8\uc18c\uce58\uacfc\uc758\uc6d0", "address":"\uad11\uc8fc\uad11\uc5ed\uc2dc \uad11\uc0b0\uad6c \uc784\ubc29\uc6b8\ub300\ub85c 372 3\uce35 (\uc218\uc644\ub3d9)", "phone":"062-955-2885", "Examination_item":"\uad6c\uac15\uac80\uc9c4", "lat":126.824138, "lon":35.193356},
 {"id":456, "store_name":"\uc218\uc644\ubc14\ub978\uce58\uacfc\uc758\uc6d0", "address":"\uad11\uc8fc\uad11\uc5ed\uc2dc \uad11\uc0b0\uad6c \ud48d\uc601\ub85c 275 2\uce35 (\uc7a5\ub355\ub3d9)", "phone":"062-959-2228", "Examination_item":"\uad6c\uac15\uac80\uc9c4", "lat":126.815372, "lon":35.195893},
 {"id":457, "store_name":"\uc218\uc644\ubc18\uc11d\uce58\uacfc\uc758\uc6d0", "address":"\uad11\uc8fc\uad11\uc5ed\uc2dc \uad11\uc0b0\uad6c \ud48d\uc601\ub85c101\ubc88\uc548\uae38 1-7 3\uce35 (\ud751\uc11d\ub3d9)", "phone":"062-952-2400", "Examination_item":"\uad6c\uac15\uac80\uc9c4", "lat":126.811164, "lon":35.180222},
 {"id":458, "store_name":"\uc218\uc644\ud37c\uc2a4\ud2b8\uce58\uacfc\uc758\uc6d0", "address":"\uad11\uc8fc\uad11\uc5ed\uc2dc \uad11\uc0b0\uad6c \uc7a5\uc2e0\ub85c 77 602\ud638 (\uc7a5\ub355\ub3d9)", "phone":"062-451-2875", "Examination_item":"\uad6c\uac15\uac80\uc9c4", "lat":126.818591, "lon":35.19121},
 {"id":459, "store_name":"\uc218\uce58\uacfc\uc758\uc6d0", "address":"\uad11\uc8fc\uad11\uc5ed\uc2dc \uad11\uc0b0\uad6c \ud558\ub0a8\ub300\ub85c 288 3\uce35 (\uc6b4\ub0a8\ub3d9)", "phone":"062-956-2882", "Examination_item":"\uad6c\uac15\uac80\uc9c4", "lat":126.825051, "lon":35.17878},
 {"id":460, "store_name":"\uc2a4\ud398\uc15c\uce58\uacfc\uc758\uc6d0", "address":"\uad11\uc8fc\uad11\uc5ed\uc2dc \uad11\uc0b0\uad6c \uc7a5\ub355\ub85c137\ubc88\uae38 17 2\uce35 (\uc218\uc644\ub3d9)", "phone":"062-951-2828", "Examination_item":"\uad6c\uac15\uac80\uc9c4", "lat":126.822948, "lon":35.197436},
 {"id":461, "store_name":"\uc2ac\uae30\ub86d\uace0\uc544\ub984\ub2e4\uc6b4\uce58\uacfc\uad50\uc815\uacfc\uce58\uacfc\uc758\uc6d0", "address":"\uad11\uc8fc\uad11\uc5ed\uc2dc \uad11\uc0b0\uad6c \ud558\ub0a8\ub300\ub85c 87 501\ud638 (\ud558\ub0a8\ub3d9)", "phone":"062-956-0275", "Examination_item":"\uad6c\uac15\uac80\uc9c4", "lat":126.803167, "lon":35.180522},
 {"id":462, "store_name":"\uc2dc\uc6d0\uce58\uacfc\uc758\uc6d0", "address":"\uad11\uc8fc\uad11\uc5ed\uc2dc \uad11\uc0b0\uad6c \uc6a9\uc544\ub85c379\ubc88\uae38 29 2\uce35 (\uc0b0\uc815\ub3d9)", "phone":"062-951-0128", "Examination_item":"\uad6c\uac15\uac80\uc9c4", "lat":126.802686, "lon":35.176605},
 {"id":463, "store_name":"\uc2e0\ucc3d\uce58\uacfc\uc758\uc6d0", "address":"\uad11\uc8fc\uad11\uc5ed\uc2dc \uad11\uc0b0\uad6c \uc2e0\ucc3d\ub85c 70 \uacbd\uc6d0\ube4c\ub529 3\uce35 302\ud638 (\uc2e0\ucc3d\ub3d9)", "phone":"062-953-2275", "Examination_item":"\uad6c\uac15\uac80\uc9c4", "lat":126.837374, "lon":35.191518},
 {"id":464, "store_name":"\uc2e0\ud654\uce58\uacfc\uc758\uc6d0", "address":"\uad11\uc8fc\uad11\uc5ed\uc2dc \uad11\uc0b0\uad6c \uc2e0\ucc3d\ub85c 64 4\uce35 (\uc2e0\ucc3d\ub3d9)", "phone":"062-962-7528", "Examination_item":"\uad6c\uac15\uac80\uc9c4", "lat":126.837393, "lon":35.190951},
 {"id":465, "store_name":"\uc544\ub984\ub4dc\ub9ac\uce58\uacfc\uc758\uc6d0", "address":"\uad11\uc8fc\uad11\uc5ed\uc2dc \uad11\uc0b0\uad6c \uc784\ubc29\uc6b8\ub300\ub85c 348 8\uce35 (\uc218\uc644\ub3d9)", "phone":"062-953-7522", "Examination_item":"\uad6c\uac15\uac80\uc9c4", "lat":126.824357, "lon":35.191104},
 {"id":466, "store_name":"\uc544\uc774\uc624\uce58\uacfc\uc758\uc6d0", "address":"\uad11\uc8fc\uad11\uc5ed\uc2dc \uad11\uc0b0\uad6c \uc5b4\ub4f1\ub300\ub85c 424 3\uce35 (\uc120\uc554\ub3d9)", "phone":"062-945-1515", "Examination_item":"\uad6c\uac15\uac80\uc9c4", "lat":126.769507, "lon":35.149151},
 {"id":467, "store_name":"\uc5d0\uc2a4\uc5e0\uce58\uacfc\uc758\uc6d0", "address":"\uad11\uc8fc\uad11\uc5ed\uc2dc \uad11\uc0b0\uad6c \uc784\ubc29\uc6b8\ub300\ub85c 788 (\uc6d4\uacc4\ub3d9)", "phone":"062-971-7528", "Examination_item":"\uad6c\uac15\uac80\uc9c4", "lat":126.844453, "lon":35.217329},
 {"id":468, "store_name":"\uc5d0\uc774\uc2a4\uce58\uacfc\uc758\uc6d0", "address":"\uad11\uc8fc\uad11\uc5ed\uc2dc \uad11\uc0b0\uad6c \uc6a9\uc544\ub85c379\ubc88\uae38 30 2\uce35 (\ud558\ub0a8\ub3d9)", "phone":"062-954-2275", "Examination_item":"\uad6c\uac15\uac80\uc9c4", "lat":126.802504, "lon":35.177072},
 {"id":469, "store_name":"\uc624\ubcf5\uc5b4\ub9b0\uc774\uce58\uacfc\uc758\uc6d0", "address":"\uad11\uc8fc\uad11\uc5ed\uc2dc \uad11\uc0b0\uad6c \uc7a5\uc2e0\ub85c 85 2\uce35 203.206\ud638 (\uc7a5\ub355\ub3d9)", "phone":"062-952-2879", "Examination_item":"\uad6c\uac15\uac80\uc9c4", "lat":126.819611, "lon":35.19131},
 {"id":470, "store_name":"\uc62c\ubc14\ub978\uce58\uacfc\uad50\uc815\uacfc\uce58\uacfc\uc758\uc6d0", "address":"\uad11\uc8fc\uad11\uc5ed\uc2dc \uad11\uc0b0\uad6c \uc784\ubc29\uc6b8\ub300\ub85c 776 2\uce35 (\uc6d4\uacc4\ub3d9", "phone":"062-972-7528", "Examination_item":"\uad6c\uac15\uac80\uc9c4", "lat":126.843277, "lon":35.217327},
 {"id":471, "store_name":"\uc6b0\ub9ac\uac00\uc871\uce58\uacfc\uc758\uc6d0", "address":"\uad11\uc8fc\uad11\uc5ed\uc2dc \uad11\uc0b0\uad6c \uc2e0\ucc3d\ub85c 127 402\ud638 (\uc2e0\ucc3d\ub3d9)", "phone":"062-954-2804", "Examination_item":"\uad6c\uac15\uac80\uc9c4", "lat":126.838267, "lon":35.196638},
 {"id":472, "store_name":"\uc6b4\ub0a8\uac00\uc871\uce58\uacfc\uc758\uc6d0", "address":"\uad11\uc8fc\uad11\uc5ed\uc2dc \uad11\uc0b0\uad6c \uc0ac\uc554\ub85c340\ubc88\uae38 31 (\uc6d4\uace1\ub3d9)", "phone":"062-962-8275", "Examination_item":"\uad6c\uac15\uac80\uc9c4", "lat":126.810632, "lon":35.175259},
 {"id":473, "store_name":"\uc6c5\uce58\uacfc\uc758\uc6d0", "address":"\uad11\uc8fc\uad11\uc5ed\uc2dc \uad11\uc0b0\uad6c \ubaa9\ub828\ub85c153\ubc88\uae38 56 \uc6b4\ub0a8\uc8fc\uacf57\ub2e8\uc9c0\uc544\ud30c\ud2b8 \uc0c1\uac00\ub3d9 203.204\ud638 (\uc6b4\ub0a8\ub3d9)", "phone":"062-959-2875", "Examination_item":"\uad6c\uac15\uac80\uc9c4", "lat":126.816003, "lon":35.173554},
 {"id":474, "store_name":"\uc704\ubbfc\uce58\uacfc\uc758\uc6d0", "address":"\uad11\uc8fc\uad11\uc5ed\uc2dc \uad11\uc0b0\uad6c \uc0ac\uc554\ub85c215\ubc88\uae38 45 (\uc6b0\uc0b0\ub3d9)", "phone":"062-953-8621", "Examination_item":"\uad6c\uac15\uac80\uc9c4", "lat":126.805818, "lon":35.163647},
 {"id":475, "store_name":"\uc720\ub514\uce58\uacfc\uc758\uc6d0", "address":"\uad11\uc8fc\uad11\uc5ed\uc2dc \uad11\uc0b0\uad6c \uc7a5\uc2e0\ub85c 76 6\uce35 (\uc7a5\ub355\ub3d9)", "phone":"062-959-8661", "Examination_item":"\uad6c\uac15\uac80\uc9c4", "lat":126.818338, "lon":35.190487},
 {"id":476, "store_name":"\uc73c\ub738\uce58\uacfc\uc758\uc6d0", "address":"\uad11\uc8fc\uad11\uc5ed\uc2dc \uad11\uc0b0\uad6c \uc2e0\ucc3d\ub85c 2 5\uce35 (\uc2e0\uac00\ub3d9)", "phone":"062-959-2828", "Examination_item":"\uad6c\uac15\uac80\uc9c4", "lat":126.837285, "lon":35.185406},
 {"id":477, "store_name":"\uc774\ub8f8\uce58\uacfc\uc758\uc6d0", "address":"\uad11\uc8fc\uad11\uc5ed\uc2dc \uad11\uc0b0\uad6c \uc6d4\uacc4\ub85c 187 2\uce35 (\uc6d4\uacc4\ub3d9)", "phone":"062-974-2873", "Examination_item":"\uad6c\uac15\uac80\uc9c4", "lat":126.846152, "lon":35.213659},
 {"id":478, "store_name":"\uc774\uc120\ud76c\uce58\uacfc\uc758\uc6d0", "address":"\uad11\uc8fc\uad11\uc5ed\uc2dc \uad11\uc0b0\uad6c \uc6d4\uacc4\ub85c 169 2\uce35 (\uc6d4\uacc4\ub3d9)", "phone":"062-972-2535", "Examination_item":"\uad6c\uac15\uac80\uc9c4", "lat":126.844066, "lon":35.213612},
 {"id":479, "store_name":"\uc774\uc548\uce58\uacfc\uc758\uc6d0", "address":"\uad11\uc8fc\uad11\uc5ed\uc2dc \uad11\uc0b0\uad6c \uc190\uc7ac\ub85c110\ubc88\uae38 46 (\uc0b0\uc815\ub3d9,\uc0c1\ud604\ube4c\ub529 4\uce35 \uc774\uc548\uce58\uacfc\uc758\uc6d0)", "phone":"062-956-2875", "Examination_item":"\uad6c\uac15\uac80\uc9c4", "lat":126.799468, "lon":35.175996},
 {"id":480, "store_name":"\uc778\uc0ac\ub791\uce58\uacfc\uc758\uc6d0", "address":"\uad11\uc8fc\uad11\uc5ed\uc2dc \uad11\uc0b0\uad6c \ubaa9\ub828\ub85c153\ubc88\uae38 79 (\uc6b4\ub0a8\ub3d9)", "phone":"062-961-7528", "Examination_item":"\uad6c\uac15\uac80\uc9c4", "lat":126.814385, "lon":35.175404},
 {"id":481, "store_name":"\uc784\uad11\ud638\uce58\uacfc\uc758\uc6d0", "address":"\uad11\uc8fc\uad11\uc5ed\uc2dc \uad11\uc0b0\uad6c \uc0b0\uc6d4\ub85c 80 (\uc0b0\uc6d4\ub3d9,\ubd80\uc6017\ucc28 \uc0c1\uac00\ub3d9 204\ud638)", "phone":"062-234-7528", "Examination_item":"\uad6c\uac15\uac80\uc9c4", "lat":126.845984, "lon":35.207663},
 {"id":482, "store_name":"\uc790\uc5f0\uc774\uc0ac\ub791\uce58\uacfc\uc758\uc6d0", "address":"\uad11\uc8fc\uad11\uc5ed\uc2dc \uad11\uc0b0\uad6c \uc655\ubc84\ub4e4\ub85c 86 3\uce35 302\ud638 (\uc218\uc644\ub3d9)", "phone":"062-955-7522", "Examination_item":"\uad6c\uac15\uac80\uc9c4", "lat":126.820167, "lon":35.202213},
 {"id":483, "store_name":"\uc7ac\ubbfc\uce58\uacfc\uc758\uc6d0", "address":"\uad11\uc8fc\uad11\uc5ed\uc2dc \uad11\uc0b0\uad6c \uc784\ubc29\uc6b8\ub300\ub85c 727-6 3\uce35 (\uc6d4\uacc4\ub3d9)", "phone":"062-973-5265", "Examination_item":"\uad6c\uac15\uac80\uc9c4", "lat":126.838546, "lon":35.218688},
 {"id":484, "store_name":"\uc815\uc131\uad6d\uce58\uacfc\uc758\uc6d0", "address":"\uad11\uc8fc\uad11\uc5ed\uc2dc \uad11\uc0b0\uad6c \uc0c1\ubb34\ub300\ub85c 258 5\uce35 (\uc1a1\uc815\ub3d9)", "phone":"062-945-0002", "Examination_item":"\uad6c\uac15\uac80\uc9c4", "lat":126.795026, "lon":35.141448},
 {"id":485, "store_name":"\uc81c\uc77c\uce58\uacfc\uc758\uc6d0", "address":"\uad11\uc8fc\uad11\uc5ed\uc2dc \uad11\uc0b0\uad6c \ube44\uc544\uc911\uc559\ub85c 32-1 1\uce35 (\ube44\uc544\ub3d9)", "phone":"062-956-2828", "Examination_item":"\uad6c\uac15\uac80\uc9c4", "lat":126.82498, "lon":35.221802},
 {"id":486, "store_name":"\uc870\uc544\uc601\uce58\uacfc\uc758\uc6d0", "address":"\uad11\uc8fc\uad11\uc5ed\uc2dc \uad11\uc0b0\uad6c \ucca8\ub2e8\uc911\uc559\ub85c 23 \ub0a8\ubd80\ub300\ud559\uad50 \ubcf5\uc9c0103\ub3d9 3\uce35 (\uc6d4\uacc4\ub3d9)", "phone":"062-974-2875", "Examination_item":"\uad6c\uac15\uac80\uc9c4", "lat":126.84104, "lon":35.207832},
 {"id":487, "store_name":"\uc9c0\ud50c\ub780\ud2b8\uce58\uacfc\uc758\uc6d0", "address":"\uad11\uc8fc\uad11\uc5ed\uc2dc \uad11\uc0b0\uad6c \uc6b0\uc0b0\ub85c95\ubc88\uae38 44 2\uce35 201~203\ud638 (\uc6b0\uc0b0\ub3d9)", "phone":"062-945-2877", "Examination_item":"\uad6c\uac15\uac80\uc9c4", "lat":126.811354, "lon":35.158095},
 {"id":488, "store_name":"\uc9c4\ubd80\ubd80\uce58\uacfc\uc758\uc6d0", "address":"\uad11\uc8fc\uad11\uc5ed\uc2dc \uad11\uc0b0\uad6c \uc2e0\ucc3d\ub85c131\ubc88\uae38 19 3\uce35 302\ud638 (\uc2e0\ucc3d\ub3d9)", "phone":"062-954-2822", "Examination_item":"\uad6c\uac15\uac80\uc9c4", "lat":126.837632, "lon":35.197254},
 {"id":489, "store_name":"\ucc38\ubc14\ub978\uce58\uacfc\uad50\uc815\uacfc\uce58\uacfc\uc758\uc6d0", "address":"\uad11\uc8fc\uad11\uc5ed\uc2dc \uad11\uc0b0\uad6c \uc7a5\uc2e0\ub85c 142 401\ud638 (\uc218\uc644\ub3d9)", "phone":"062-961-2885", "Examination_item":"\uad6c\uac15\uac80\uc9c4", "lat":126.825608, "lon":35.190431},
 {"id":490, "store_name":"\ucca8\ub2e8\ub178\ube14\uce58\uacfc\uc758\uc6d0", "address":"\uad11\uc8fc\uad11\uc5ed\uc2dc \uad11\uc0b0\uad6c \ucca8\ub2e8\ub0b4\ucd0c\ub85c 93 2\uce35 201,202\ud638 (\uc6d4\uacc4\ub3d9)", "phone":"062-972-2875", "Examination_item":"\uad6c\uac15\uac80\uc9c4", "lat":126.833652, "lon":35.213773},
 {"id":491, "store_name":"\ucca8\ub2e8\uc0ac\ub791\uce58\uacfc\uc758\uc6d0", "address":"\uad11\uc8fc\uad11\uc5ed\uc2dc \uad11\uc0b0\uad6c \ucca8\ub2e8\ub0b4\ucd0c\ub85c 71 2\uce35 (\uc6d4\uacc4\ub3d9)", "phone":"062-972-2804", "Examination_item":"\uad6c\uac15\uac80\uc9c4", "lat":126.83619, "lon":35.212896},
 {"id":492, "store_name":"\ucca8\ub2e8\ud37c\uc2a4\ud2b8\uce58\uacfc\uc758\uc6d0", "address":"\uad11\uc8fc\uad11\uc5ed\uc2dc \uad11\uc0b0\uad6c \ucca8\ub2e8\uc911\uc559\ub85c 96 (\uc6d4\uacc4\ub3d9)", "phone":"062-971-0111", "Examination_item":"\uad6c\uac15\uac80\uc9c4", "lat":126.843459, "lon":35.21384},
 {"id":493, "store_name":"\uccad\uce58\uacfc\uc758\uc6d0", "address":"\uad11\uc8fc\uad11\uc5ed\uc2dc \uad11\uc0b0\uad6c \ucca8\ub2e8\uc911\uc559\ub85c 104 4\uce35 (\uc6d4\uacc4\ub3d9, \uc5d0\uc774\uc2a4\ube4c\ub529)", "phone":"062-972-7572", "Examination_item":"\uad6c\uac15\uac80\uc9c4", "lat":126.843327, "lon":35.214623},
 {"id":494, "store_name":"\ucd5c\uc218\uc9c4\uce58\uacfc\uc758\uc6d0", "address":"\uad11\uc8fc\uad11\uc5ed\uc2dc \uad11\uc0b0\uad6c \ubaa9\ub828\ub85c273\ubc88\uc548\uae38 30 201\ud638 (\uc6b4\ub0a8\ub3d9)", "phone":"062-952-2275", "Examination_item":"\uad6c\uac15\uac80\uc9c4", "lat":126.82191, "lon":35.178074},
 {"id":495, "store_name":"\uce98\ub9ac\ud3ec\ub2c8\uc544\uce58\uacfc\uc758\uc6d0", "address":"\uad11\uc8fc\uad11\uc5ed\uc2dc \uad11\uc0b0\uad6c \ud558\ub0a8\ub300\ub85c 135 6\uce35 (\ud751\uc11d\ub3d9)", "phone":"062-954-7582", "Examination_item":"\uad6c\uac15\uac80\uc9c4", "lat":126.808756, "lon":35.180442},
 {"id":496, "store_name":"\ud070\ubcc4\uce58\uacfc\uc758\uc6d0", "address":"\uad11\uc8fc\uad11\uc5ed\uc2dc \uad11\uc0b0\uad6c \uc784\ubc29\uc6b8\ub300\ub85c 210 2\uce35 (\uc2e0\uac00\ub3d9, \uc218\uc5f0\ube4c\ub529)", "phone":"062-962-2879", "Examination_item":"\uad6c\uac15\uac80\uc9c4", "lat":126.818182, "lon":35.180002},
 {"id":497, "store_name":"\ud37c\uc2a4\ud2b8\uce58\uacfc\uc758\uc6d0", "address":"\uad11\uc8fc\uad11\uc5ed\uc2dc \uad11\uc0b0\uad6c \uc120\uc6b4\uc911\uc559\ub85c 56 2\uce35 202\ud638 (\uc120\uc554\ub3d9)", "phone":"062-942-0275", "Examination_item":"\uad6c\uac15\uac80\uc9c4", "lat":126.777988, "lon":35.147848},
 {"id":498, "store_name":"\ud478\ub978\ubd80\ubd80\uce58\uacfc\uc758\uc6d0", "address":"\uad11\uc8fc\uad11\uc5ed\uc2dc \uad11\uc0b0\uad6c \ud558\ub0a8\ub300\ub85c 292 3\uce35 (\uc6b4\ub0a8\ub3d9)", "phone":"062-952-1349", "Examination_item":"\uad6c\uac15\uac80\uc9c4", "lat":126.825523, "lon":35.178749},
 {"id":499, "store_name":"\ud504\ub9ac\ubbf8\uc5c4\uce58\uacfc\uc758\uc6d0", "address":"\uad11\uc8fc\uad11\uc5ed\uc2dc \uad11\uc0b0\uad6c \uc784\ubc29\uc6b8\ub300\ub85c 352 (\uc218\uc644\ub3d9)", "phone":"062-574-2279", "Examination_item":"\uad6c\uac15\uac80\uc9c4", "lat":126.824474, "lon":35.191376},
 {"id":500, "store_name":"\ud558\ub098\ub0b4\uc544\uc774\uce58\uacfc\uc758\uc6d0", "address":"\uad11\uc8fc\uad11\uc5ed\uc2dc \uad11\uc0b0\uad6c \uc7a5\uc2e0\ub85c 141 2\uce35 213\ud638 (\uc218\uc644\ub3d9)", "phone":"062-962-6975", "Examination_item":"\uad6c\uac15\uac80\uc9c4", "lat":126.825632, "lon":35.191008},
 {"id":501, "store_name":"\ud558\ub098\uc544\ub3d9\uce58\uacfc\uc758\uc6d0", "address":"\uad11\uc8fc\uad11\uc5ed\uc2dc \uad11\uc0b0\uad6c \uc784\ubc29\uc6b8\ub300\ub85c 784 1\uce35 (\uc6d4\uacc4\ub3d9)", "phone":"062-971-7928", "Examination_item":"\uad6c\uac15\uac80\uc9c4", "lat":126.844146, "lon":35.217272},
 {"id":502, "store_name":"\ud558\ub0a8\ub178\ube14\uce58\uacfc\uc758\uc6d0", "address":"\uad11\uc8fc\uad11\uc5ed\uc2dc \uad11\uc0b0\uad6c \uc0ac\uc554\ub85c 398 (\uc6d4\uace1\ub3d9)", "phone":"062-956-2872", "Examination_item":"\uad6c\uac15\uac80\uc9c4", "lat":126.808503, "lon":35.179772},
 {"id":503, "store_name":"\ud558\ub0a8\ud37c\uc2a4\ud2b8\uce58\uacfc\uc758\uc6d0", "address":"\uad11\uc8fc\uad11\uc5ed\uc2dc \uad11\uc0b0\uad6c \ubaa9\ub828\ub85c 42 (\uc0b0\uc815\ub3d9,\ubd80\uc601\uc0ac\ub791\uc73c\ub85c\uc0c1\uac00 2\uce35)", "phone":"062-955-2877", "Examination_item":"\uad6c\uac15\uac80\uc9c4", "lat":126.802249, "lon":35.17122},
 {"id":504, "store_name":"\ud558\ub298\uc218\uce58\uacfc\uc758\uc6d0", "address":"\uad11\uc8fc\uad11\uc5ed\uc2dc \uad11\uc0b0\uad6c \uc7a5\ub355\ub85c 55 3\uce35 (\uc7a5\ub355\ub3d9)", "phone":"062-961-6002", "Examination_item":"\uad6c\uac15\uac80\uc9c4", "lat":126.815296, "lon":35.19509},
 {"id":505, "store_name":"\ud558\uc774\uce58\uacfc\uc758\uc6d0", "address":"\uad11\uc8fc\uad11\uc5ed\uc2dc \uad11\uc0b0\uad6c \uc7a5\uc2e0\ub85c 82 (\uc7a5\ub355\ub3d9)", "phone":"062-951-2842", "Examination_item":"\uad6c\uac15\uac80\uc9c4", "lat":126.818756, "lon":35.190455},
 {"id":506, "store_name":"\ud55c\uac15\ubd80\ubd80\uce58\uacfc\uc758\uc6d0", "address":"\uad11\uc8fc\uad11\uc5ed\uc2dc \uad11\uc0b0\uad6c \uc0ac\uc554\ub85c 251 (\uc6d4\uace1\ub3d9)", "phone":"062-954-2875", "Examination_item":"\uad6c\uac15\uac80\uc9c4", "lat":126.807636, "lon":35.166919},
 {"id":507, "store_name":"\ud55c\uc0ac\ub791\ud50c\ub780\ud2b8\uce58\uacfc\uc758\uc6d0", "address":"\uad11\uc8fc\uad11\uc5ed\uc2dc \uad11\uc0b0\uad6c \uc784\ubc29\uc6b8\ub300\ub85c 134 2\uce35 (\uc6b4\ub0a8\ub3d9)", "phone":"062-961-2870", "Examination_item":"\uad6c\uac15\uac80\uc9c4", "lat":126.817844, "lon":35.173067},
 {"id":508, "store_name":"\ud574\ubc14\ub77c\uae30\uce58\uacfc\uc758\uc6d0", "address":"\uad11\uc8fc\uad11\uc5ed\uc2dc \uad11\uc0b0\uad6c \ud558\ub0a8\ub300\ub85c 282 (\uc6b4\ub0a8\ub3d9)", "phone":"062-956-2272", "Examination_item":"\uad6c\uac15\uac80\uc9c4", "lat":126.824501, "lon":35.178811},
 {"id":509, "store_name":"\ud589\ubcf5\uce58\uacfc\uc758\uc6d0", "address":"\uad11\uc8fc\uad11\uc5ed\uc2dc \uad11\uc0b0\uad6c \uc2e0\ucc3d\ub85c 129 (\uc2e0\ucc3d\ub3d9)", "phone":"062-956-7599", "Examination_item":"\uad6c\uac15\uac80\uc9c4", "lat":126.838395, "lon":35.196891},
 {"id":510, "store_name":"\ud65c\uc9dd\uc6c3\ub294\uce58\uacfc\uad50\uc815\uacfc\uce58\uacfc\uc758\uc6d0", "address":"\uad11\uc8fc\uad11\uc5ed\uc2dc \uad11\uc0b0\uad6c \ucca8\ub2e8\uc911\uc559\ub85c 136 \ucca8\ub2e8\uc13c\uce04\ub7f4\ube4c\ub529 211, 212\ud638 (\uc6d4\uacc4\ub3d9)", "phone":"062-973-7475", "Examination_item":"\uad6c\uac15\uac80\uc9c4", "lat":126.842653, "lon":35.217231}]