[{"id":1, "store_name":"\uafc8\uafb8\ub294 \ub098\ubb34", "address":"\uad11\uc8fc \uc11c\uad6c \uce58\ud3c9\ub3d9 1326 \uc138\uc815\uc544\uc6b8\ub81b 4\uce35", "phone":"062-383-3883", "fare":"10000\uc6d0", "lat":126.847306, "lon":35.146716},
 {"id":2, "store_name":"\uc544\uc774\ud50c\ub7ec\uc2a4 \ud0a4\uc988\uce74\ud398", "address":"\uad11\uc8fc \uc11c\uad6c \ud654\uc815\ub3d9 616-2\ubc88\uc9c0 2\uce35 3\ud638", "phone":"062-464-0070", "fare":"(\uc2dc\uac04 \ub2f9)6000\uc6d0", "lat":126.884247, "lon":35.14662},
 {"id":3, "store_name":"\uc810\ud504\ub178\ub9ac \uae08\ud638\uc810", "address":"\uad11\uc8fc \uc11c\uad6c \ub3d9\ucc9c\ub3d9 630\ubc88\uc9c0 \uc9c0\uc120\ube4c\ub529 5\uce35", "phone":"062-512-9955", "fare":"30\ubd84-2000\uc6d0 \uc885\uc77c-8000\uc6d0", "lat":126.869659, "lon":35.171399},
 {"id":4, "store_name":"\uc810\ud504\ub178\ub9ac \ub3d9\ucc9c\uc810", "address":"\uad11\uc8fc \uc11c\uad6c \uc30d\ucd0c\ub3d9 1252", "phone":"062-453-9000", "fare":"30\ubd84-2000\uc6d0 \uc885\uc77c-8000\uc6d0", "lat":126.858159, "lon":35.141248},
 {"id":5, "store_name":"\ube14\ub7ed\ubc84\uc2a4 \uc720\uc2a4\ud018\uc5b4\uc810", "address":"\uad11\uc8fc \uc11c\uad6c \ubb34\uc9c4\ub300\ub85c 904 \uc720\uc2a4\ud018\uc5b4(\uad11\ucc9c\ud130\ubbf8\ub110)", "phone":"062-366-0246", "fare":"1\uc2dc\uac04 7200\uc6d0", "lat":126.880418, "lon":35.160132},
 {"id":6, "store_name":"\uc6d4\ub4dc\ud0b9", "address":"\uad11\uc8fc \uc11c\uad6c \ud48d\uc5542\ub85c 2 \ub86f\ub370\uc288\ud37c\uc13c\ud130", "phone":"0507-1449-7006", "fare":"\uc785\uc7a5\ub8cc-6000~12000\uc6d0 \ubcf4\ud638\uc790-4000\uc6d0", "lat":126.879081, "lon":35.127192},
 {"id":7, "store_name":"\uc2a4\uce74\uc774\ubc29\ubc29\ub79c\ub4dc \ud0a4\uc988\uce74\ud398", "address":"\uad11\uc8fc \uc11c\uad6c \ud48d\uc5541\ub85c21\ubc88\uae38 15", "phone":"070-8222-2600", "fare":"1\uc2dc\uac04-3000\uc6d0, 2\uc2dc\uac04-5000\uc6d0 \uc885\uc77c-7000\uc6d0", "lat":126.879626, "lon":35.125845},
 {"id":8, "store_name":"\ube14\ub7ed\ub098\ub77c", "address":"\uad11\uc8fc \uc11c\uad6c \uc5fc\ud654\ub85c45\ubc88\uae38 17 \ub77c\uc778\ub3d9\uc0b0\uc544\ud30c\ud2b8 \uc0c1\uac00 2", "phone":"0507-1323-2140", "fare":"1\uc2dc\uac04-6000\uc6d0", "lat":126.870155, "lon":35.137971},
 {"id":9, "store_name":"\ube14\ub7ed\uc2a4\ucfe8 \ub3d9\ucc9c\uc810", "address":"\uad11\uc8fc \uc11c\uad6c \uc720\ub9bc\ub85c98\ubc88\uae38 19", "phone":"062-525-4800", "fare":"", "lat":126.866017, "lon":35.17123},
 {"id":10, "store_name":"\ube14\ub7ed\uc2a4\ucfe8 \ud48d\uc554\uc810", "address":"\uad11\uc8fc \uc11c\uad6c \ud48d\uc5541\ub85c 52 \uc2e0\uc554\ub9c8\uc744\ubd80\uc601\uc544\ud30c\ud2b8", "phone":"062-654-6633", "fare":"1\uc2dc\uac04 5000\uc6d0", "lat":126.877738, "lon":35.123493},
 {"id":11, "store_name":"\ube14\ub7ed\ubc84\uc2a4 \ub86f\ub370\ub9c8\ud2b8 \uad11\uc8fc \uc6d4\ub4dc\ucef5\uc810", "address":"\uad11\uc8fc \uc11c\uad6c \uae08\ud654\ub85c 240 3", "phone":"062-682-0246", "fare":"", "lat":126.876802, "lon":35.133355},
 {"id":12, "store_name":"\ud558\uc774\ub808\uace0 \uadf8\ub9ac\uace0 \ucee4\ud53c", "address":"\uad11\uc8fc \uc11c\uad6c \uc5fc\ud654\ub85c134\ubc88\uae38 27", "phone":"062-384-8406", "fare":"\uba54\ub274 \ubcc4\ub85c \uc0c1\uc774", "lat":126.879686, "lon":35.140692},
 {"id":13, "store_name":"\ube14\ub7ed\uc2a4\ucfe8 \uc0c1\ubb34\uc810", "address":"\uad11\uc8fc \uc11c\uad6c \uce58\ud3c9\ub85c 79 \uc911\ud7652\ucc28\uc0c1\uac00 \ud143\ubc2d\ub9c8\ud2b8 2\uce35", "phone":"062-373-3877", "fare":"", "lat":126.84596, "lon":35.154256},
 {"id":14, "store_name":"\uc810\ud551 \ud50c\ub808\uc774", "address":"\uad11\uc8fc \uc11c\uad6c \ud48d\uc5541\ub85c 19", "phone":"070-4131-8525", "fare":"1\uc2dc\uac04-3000\uc6d0", "lat":126.878325, "lon":35.125473},
 {"id":15, "store_name":"\ud50c\ub808\uc774\ud0c0\uc784 \ub86f\ub370\uc0c1\ubb34\uc810", "address":"\uad11\uc8fc \uc11c\uad6c \uc2dc\uccad\ub85c 40", "phone":"062-375-0970", "fare":"2\uc2dc\uac04-6000\uc6d0", "lat":126.852418, "lon":35.152371},
 {"id":16, "store_name":"\ubc29\ubc29\uc6d4\ub4dc \uc720\ucd0c\uc810", "address":"\uad11\uc8fc \uc11c\uad6c \uc0c1\ubb34\ubc84\ub4e4\ub85c 32", "phone":"", "fare":"", "lat":126.860006, "lon":35.164647},
 {"id":17, "store_name":"\ube14\ub7ed\uc5c5 \ub3d9\ucc9c\uc810", "address":"\uad11\uc8fc \uc11c\uad6c \ub3d9\ucc9c\ub85c18\ubc88\uae38 18", "phone":"", "fare":"", "lat":126.862271, "lon":35.169851},
 {"id":18, "store_name":"\ube14\ub7ed\uc2a4\ucfe8", "address":"\uad11\uc8fc \uc11c\uad6c \ud654\uac1c1\ub85c79\ubc88\uae38 3", "phone":"062-676-1158", "fare":"", "lat":126.854781, "lon":35.13094},
 {"id":19, "store_name":"\ud2b8\ub9ac\uc544\uc774 \ud0a4\uc988\uce74\ud398", "address":"\uad11\uc8fc \ub3d9\uad6c \uc911\uc559\ub85c160\ubc88\uae38 8 \ucda9\uc7a5\uc544\uc6b8\ub81b 3\uce35", "phone":"062-225-7212", "fare":"\uc785\uc7a5\ub8cc-6000~12000\uc6d0", "lat":126.913731, "lon":35.147681},
 {"id":20, "store_name":"\ucfe0\ud0a4\ub9cc\ub4e4\uae30 \ucfe0\ud0a4\ube48", "address":"\uad11\uc8fc \ub3d9\uad6c \ucda9\uc7a5\ub85c 72 \uc640\uc774\uc988\ud30c\ud06c 5\uce35 \ucfe0\ud0a4\ube48", "phone":"0507-1405-4367", "fare":"\ucfe0\ud0a4(1\uc778)-10,000\uc6d0 \ucef5\ucf00\uc7756\uad6c-23,800\uc6d0 \ucd08\ucf5c\ub9bf21\uad6c-19,000\uc6d0 \ucef5\ucf00\uc7754\uad6c-19,800\uc6d0 \ucf00\uc774\ud06c-23,000\uc6d0 \uc218\uc81c\ub9c8\uce74\ub871\uafb8\ubbf8\uae30-14,000\uc6d0 \ube7c\ube7c\ub85c(11\uc6d4\ub9cc)-19,000\uc6d0 \ub2e4\uc591\ud55c \uc138\ud2b8\uba54\ub274(\ubcc0\ub3d9)", "lat":126.915059, "lon":35.148513},
 {"id":21, "store_name":"\ud558\uc774\uc8fc \uad11\uc8fc\uc810", "address":"\uad11\uc8fc \ub3d9\uad6c \ucda9\uc7a5\ub85c 72", "phone":"062-222-0673", "fare":"14\uc138 \uc774\uc0c1~ : 8,900\uc6d0 24\uac1c\uc6d4 \uc774\uc0c1~13\uc138 \uc774\ud558 : 12,900\uc6d0 18\uac1c\uc6d4 \uc774\uc0c1~24\uac1c\uc6d4 \ubbf8\ub9cc : 5,000\uc6d0 18\uac1c\uc6d4 \ubbf8\ub9cc \ubb34\ub8cc", "lat":126.915059, "lon":35.148513},
 {"id":22, "store_name":"\ube14\ub7ed\ubc84\uc2a4 \ucda9\uc7a5\uc810", "address":"\uad11\uc8fc \ub3d9\uad6c \uc911\uc559\ub85c 163 NC \uc6e8\uc774\ube0c \ucda9\uc7a5\uc810 8\uce35", "phone":"062-718-9588", "fare":"1\uc2dc\uac04 7200\uc6d0", "lat":126.913113, "lon":35.148775},
 {"id":23, "store_name":"\ud50c\ub808\uc774\ud0c0\uc784 NC\uc6e8\uc774\ube0c \ucda9\uc7a5\uc810", "address":"\uad11\uc8fc \ub3d9\uad6c \uc911\uc559\ub85c 163 9\uce35", "phone":"062-718-9590", "fare":"1\uc2dc\uac04 8000\uc6d0", "lat":126.913113, "lon":35.148775},
 {"id":24, "store_name":"\uc810\ud504\ub178\ub9ac \uad11\uc8fc\ud559\ub3d9\uc810", "address":"\uad11\uc8fc \ub3d9\uad6c \ub0a8\ubb38\ub85c 663 \uc6b0\ub9ac\ube4c\ub529 2\uce35 201\ud638, 202\ud638", "phone":"062-236-2310", "fare":"30\ubd84 2000\uc6d0", "lat":126.929317, "lon":35.129945},
 {"id":25, "store_name":"\uc810\ud551\ube14\ub7ed\ud0a4\uc988\uce74\ud398", "address":"\uad11\uc8fc \ub0a8\uad6c \ud6a8\ub355\ub85c 213", "phone":"062-674-6004", "fare":"\uba54\ub274 \ubcc4\ub85c \uc0c1\uc774", "lat":126.898336, "lon":35.10277},
 {"id":26, "store_name":"\uc6d4\ub4dc\ud0b9", "address":"\uad11\uc8fc \ub0a8\uad6c \uc11c\ubb38\ub300\ub85c 729 \ub86f\ub370\uc288\ud37c 2\uce35", "phone":"0507-1404-0076", "fare":"1\uc2dc\uac04-6000\uc6d0, \ud30c\ud2f0\ub8f8-1\uc2dc\uac04 12000\uc6d0", "lat":126.897604, "lon":35.124505},
 {"id":27, "store_name":"\ub178\ub9ac\ud30c\ud06c \ud6a8\ucc9c\uc810", "address":"\uad11\uc8fc \ub0a8\uad6c \ud6a8\ucc9c\uc911\uc559\ub85c 64 \ube14\ub8e8\ud0c0\uc6cc 7\uce35", "phone":"0507-1395-2333", "fare":"1\uc2dc\uac04-5000\uc6d0", "lat":126.875585, "lon":35.10212},
 {"id":28, "store_name":"\uc810\ud551\ud558\uc774", "address":"\uad11\uc8fc \ub0a8\uad6c \ubd09\uc120\ub85c 146", "phone":"0507-1447-7823", "fare":"1\uc2dc\uac04-4000\uc6d0", "lat":126.911002, "lon":35.122697},
 {"id":29, "store_name":"\uc810\ud504\ub178\ub9ac \ud6a8\ucc9c\uc810", "address":"\uad11\uc8fc \ub0a8\uad6c \ud6a8\uc6b02\ub85c26\ubc88\uae38 13 \uc81c\uc774\uc5d4\ube44\ud0c0\uc6cc 5\uce35", "phone":"0507-1318-7471", "fare":"30\ubd84-1000\uc6d0, \uc885\uc77c\uad8c-7000\uc6d0(\uc8fc\ub9d0\uc81c\uc678)", "lat":126.888663, "lon":35.102646},
 {"id":30, "store_name":"\ud50c\ub808\uc774\ub79c\ub4dc \ubd09\uc120\uc810", "address":"\uad11\uc8fc \ub0a8\uad6c \ud6a8\uc0ac\ub791\uae38 12", "phone":"062-672-1400", "fare":"7000\uc6d0", "lat":126.916252, "lon":35.121446},
 {"id":31, "store_name":"\uc810\ud551\ub79c\ub4dc", "address":"\uad11\uc8fc \ub0a8\uad6c \uae08\ub2f9\ub85c3\uae38 8-12", "phone":"062-672-8890", "fare":"", "lat":126.895122, "lon":35.122274},
 {"id":32, "store_name":"\ubbf8\ub514\uc5b4\ub180\uc774\ud130", "address":"\uad11\uc8fc \ub0a8\uad6c \ucc9c\ubcc0\uc88c\ub85c338\ubc88\uae38 7", "phone":"062-670-7953", "fare":"4000\uc6d0(24\uac1c\uc6d4 \ubb34\ub8cc)", "lat":126.908335, "lon":35.148272},
 {"id":33, "store_name":"\uc810\ud504\ub178\ub9ac \uc8fc\uc6d4\uc810", "address":"\uad11\uc8fc \ub0a8\uad6c \ub300\ub0a8\ub300\ub85c 173-1", "phone":"0507-1411-6406", "fare":"2\uc2dc\uac04-8000\uc6d0", "lat":126.906021, "lon":35.133379},
 {"id":34, "store_name":"\ud50c\ub808\uc774\ubc29", "address":"\uad11\uc8fc \ub0a8\uad6c \ub300\ub0a8\ub300\ub85c107\ubc88\uae38 10", "phone":"062-413-7326", "fare":"", "lat":126.91341, "lon":35.133067},
 {"id":35, "store_name":"\uc53d\ud06c\ube14\ub7ed\ub79c\ub4dc", "address":"\uad11\uc8fc \ub0a8\uad6c \ud654\uc0b0\ub85c31\ubc88\uc548\uae38 3", "phone":"062-673-5006", "fare":"1\uc2dc\uac04-6000\uc6d0", "lat":126.900015, "lon":35.112457},
 {"id":36, "store_name":"\ubc29\ubc29\uc6d4\ub4dc", "address":"\uad11\uc8fc \ub0a8\uad6c \ubd09\uc120\ub85c133\ubc88\uae38 7", "phone":"062-672-3307", "fare":"", "lat":126.910128, "lon":35.124086},
 {"id":37, "store_name":"\ube14\ub7ed\uc870\uc544", "address":"\uad11\uc8fc \ub0a8\uad6c \ubd09\uc120\ub85c175\ubc88\uae38 6", "phone":"", "fare":"", "lat":126.914925, "lon":35.123877},
 {"id":38, "store_name":"\uaf3c\uc9c0\ub77d", "address":"\uad11\uc8fc \ubd81\uad6c \ucca8\ub2e8\uc5f0\uc2e0\ub85c107\ubc88\uae38 5 \ud0dc\uc0b0\ube4c\ub529 5\uce35", "phone":"0507-1391-9991", "fare":"\uc774\uc6a9\uad8c 19000\uc6d0", "lat":126.863593, "lon":35.207352},
 {"id":39, "store_name":"\uba54\ub974\uc2dc\ub9c8\ub9dd \ud0a4\uc988\uce74\ud398", "address":"\uad11\uc8fc \ubd81\uad6c \uc11c\ud558\ub85c 153 2\uce35", "phone":"062-574-3232", "fare":"1\uc2dc\uac04-5000\uc6d0(\uc8fc\ub9d0 6000\uc6d0)", "lat":126.897336, "lon":35.187527},
 {"id":40, "store_name":"\ub9ac\ud2c0\ube45 \ud0a4\uc988\uce74\ud398", "address":"\uad11\uc8fc \ubd81\uad6c \ud558\ubc31\ub85c6\ubc88\uae38 12", "phone":"0507-1307-3764", "fare":"1\uc2dc\uac04-6000\uc6d0~15000\uc6d0 \ud30c\ud2f0\ub8f8, \ud790\ub9c1\ub8f8 \uac00\uaca9 \uc0c1\uc774", "lat":126.892441, "lon":35.188177},
 {"id":41, "store_name":"\ud0a4\uc988\ub2e4\ucff5", "address":"\uad11\uc8fc \ubd81\uad6c \ucca8\ub2e8\uc5f0\uc2e0\ub85c91\ubc88\uae38 20-4 3\uce35", "phone":"0507-1431-7179", "fare":"2\uc2dc\uac04-11000\uc6d0", "lat":126.862507, "lon":35.206503},
 {"id":42, "store_name":"\uad6c\uad6c\ub2e8\uc8fc\ub2c8\uc5b4\ud0a4\uc988\uce74\ud398", "address":"\uad11\uc8fc \ubd81\uad6c \uc591\uc77c\ub85c 100 4\uce35", "phone":"0507-1391-7944", "fare":"1\uc2dc\uac04-5000\uc6d0 2\uc2dc\uac04-9000\uc6d0", "lat":126.875875, "lon":35.19756},
 {"id":43, "store_name":"\ud1a0\ub07c\uc640 \uac70\ubd81\uc774 \ud0a4\uc988\uce74\ud398", "address":"\uad11\uc8fc \ubd81\uad6c \uc124\uc8fd\ub85c 341", "phone":"062-576-0399", "fare":"\ud3c9\uc77c\ubb34\uc81c\ud55c-5900\uc6d0, \uc8fc\ub9d02\uc2dc\uac04-6900\uc6d0", "lat":126.898738, "lon":35.190163},
 {"id":44, "store_name":"\ud5ec\ub85c\ubc00\uac00\ub8e8 \uad11\uc8fc\uc810", "address":"\uad11\uc8fc \ubd81\uad6c \ucca8\ub2e8\uc5f0\uc2e0\ub85c 261 \uad11\ud574\ube4c\ub529 2\uce35 \ud5ec\ub85c\ubc00\uac00\ub8e8", "phone":"010-3972-2928", "fare":"\uc544\uc774\uccb4\ud5d8\ube44-16000\uc6d0, \uc5b4\ub978\uc785\uc7a5\ub8cc-6000\uc6d0", "lat":126.859058, "lon":35.207327},
 {"id":45, "store_name":"\ub9ac\ud2c0\ud380\ud2b8\ud0a4\uc988\ud30c\ud06c", "address":"\uad11\uc8fc \ubd81\uad6c \uc124\uc8fd\ub85c 517-5 3\uce35", "phone":"0507-1302-8579", "fare":"1\uc2dc\uac04-4000\uc6d0 2\uc2dc\uac04-6000\uc6d0", "lat":126.897193, "lon":35.204553},
 {"id":46, "store_name":"\ud3ec\uc778\ud2b8\ud0a4\uc988\uce74\ud398 NC\ubc31\ud654\uc810\uad11\uc8fc\uc5ed\uc810", "address":"\uad11\uc8fc \ubd81\uad6c \uacbd\uc5f4\ub85c 249 NC\ubc31\ud654\uc810\uad11\uc8fc\uc5ed\uc810 7F", "phone":"", "fare":"", "lat":126.907126, "lon":35.16153},
 {"id":47, "store_name":"\ub808\uc774\uc2f1\ud0a4\uc988\uce74\ud398", "address":"\uad11\uc8fc \ubd81\uad6c \uc5f0\uc591\ub85c105\ubc88\uae38 32", "phone":"", "fare":"", "lat":126.880252, "lon":35.209094},
 {"id":48, "store_name":"\ub85c\ubcf4\ud0a4\uc988", "address":"\uad11\uc8fc \ubd81\uad6c \uc6a9\ubd09\ud0dd\uc9c0\ub85c13\ubc88\uae38 17", "phone":"062-515-5007", "fare":"", "lat":126.887926, "lon":35.180302},
 {"id":49, "store_name":"\ub354\ub9ac\ud2c0\uc988", "address":"\uad11\uc8fc \ubd81\uad6c \ucca8\ub2e8\uc5f0\uc2e0\ub85c91\ubc88\uae38 30 \uc0bc\uc131\ud0c0\uc6cc 8\uce35", "phone":"0507-1385-0904", "fare":"\uccb4\ud5d8\ub8cc 25000~44000\uc6d0(\ubc00\uac00\ub8e8, \ub4dc\ub85c\uc789, \ucfe0\ud0b9)", "lat":126.861234, "lon":35.206455},
 {"id":50, "store_name":"\ubc14\ub2c8\ubc14\ub2c8", "address":"\uad11\uc8fc \ubd81\uad6c \ud558\uc11c\ub85c483\ubc88\uae38 2 \uc9c0\ud50c\ub808\uc774\uc2a4 5\uce35 501\ud638", "phone":"062-574-6279", "fare":"1\uc2dc\uac04-6000\uc6d0, 2\uc2dc\uac04 10000\uc6d0", "lat":126.877452, "lon":35.217802},
 {"id":51, "store_name":"\uc6d4\ub4dc\ud0b9 \ub450\uc554\uc810", "address":"\uad11\uc8fc \ubd81\uad6c \uc0bc\uc815\ub85c3\ubc88\uae38 21", "phone":"0507-1329-0001", "fare":"1\uc2dc\uac04-6000\uc6d0, 2\uc2dc\uac04 10000\uc6d0, \ubcf4\ud638\uc790-4000\uc6d0", "lat":126.934961, "lon":35.162463},
 {"id":52, "store_name":"\uc6d4\ub4dc\ud0b9 \uc6b4\uc554\uc810", "address":"\uad11\uc8fc \ubd81\uad6c \uc11c\uac15\ub85c 78", "phone":"062-528-3645", "fare":"1\uc2dc\uac04-6000\uc6d0, 2\uc2dc\uac04 10000\uc6d0, \ubcf4\ud638\uc790-4000\uc6d0", "lat":126.871876, "lon":35.17863},
 {"id":53, "store_name":"\ucc28\uce74\ucc28\uce74 \ud328\ubc00\ub9ac\uce74\ud398", "address":"\uad11\uc8fc \ubd81\uad6c \uc5f0\uc591\ub85c105\ubc88\uae38 32", "phone":"062-572-5009", "fare":"2800~20000\uc6d0(\uc2dc\uac04\uad8c/\uc885\uc77c\uad8c)", "lat":126.880252, "lon":35.209094},
 {"id":54, "store_name":"\uc624\ub9ac\ub0a0\ub2e4", "address":"\uad11\uc8fc \ubd81\uad6c \ud558\uc11c\ub85c 396", "phone":"062-574-5253", "fare":"1\uc2dc\uac04-5000\uc6d0, 2\uc2dc\uac04-8000\uc6d0, 3\uc2dc\uac04-12000\uc6d0", "lat":126.874656, "lon":35.210259},
 {"id":55, "store_name":"\ud2b8\ub7a8\ud3f4\ub9b0\ud30c\ud06c \ub9e4\uace1\uc810", "address":"\uad11\uc8fc \ubd81\uad6c \uc11c\ud558\ub85c 123", "phone":"0507-1374-0731", "fare":"30\ubd84-2000\uc6d0, 1\uc2dc\uac04-4000\uc6d0, 2\uc2dc\uac04-6000\uc6d0", "lat":126.893876, "lon":35.187586},
 {"id":56, "store_name":"\ub9c8\ub9c8\uc9c0\ud2b8", "address":"\uad11\uc8fc \ubd81\uad6c \uc11c\uac15\ub85c 104-3 \uc6b4\uc554\ud504\ub77c\uc790 2\uce35", "phone":"0507-1379-2255", "fare":"\uc2ac\ub77c\uc784\uccb4\ud5d8-10000\uc6d0, \ubcf4\ub4dc\uac8c\uc784\ubb34\uc81c\ud55c-3000\uc6d0", "lat":126.873178, "lon":35.180526},
 {"id":57, "store_name":"\uc2ac\ub77c\uc784\uc96c\uc96c", "address":"\uad11\uc8fc \ubd81\uad6c \ucca8\ub2e8\uc5f0\uc2e0\ub85c 97 2\uce35 201\ud638 \uc194\ub85c\ubaac\ud0c0\uc6cc", "phone":"062-575-2234", "fare":"\ucf00\uc774\uc2a4\ubcc4\ub85c \uc0c1\uc774(\uc57d 12000~15000\uc6d0)", "lat":126.864032, "lon":35.20659},
 {"id":58, "store_name":"\ud2b8\ub7a8\ud3f4\ub9b0\ud30c\ud06c \uad11\uc8fc\uc591\uc0b0\uc810", "address":"\uad11\uc8fc \ubd81\uad6c \uc591\uc0b0\ud0dd\uc9c0\ub85c 58", "phone":"", "fare":"", "lat":126.880945, "lon":35.211353},
 {"id":59, "store_name":"\ube14\ub7ed\uc2a4\ucfe8 \uc77c\uace1\uc810", "address":"\uad11\uc8fc \ubd81\uad6c \uc77c\uace1\ub9c8\uc744\ub85c 21", "phone":"0507-1409-9499", "fare":"\uc2dc\uac04\ub2f9-6000\uc6d0, \uc2ac\ub77c\uc784DIY-6000\uc6d0", "lat":126.898835, "lon":35.205758},
 {"id":60, "store_name":"\ud3f4\uc9dd\ud3f4\uc9dd", "address":"\uad11\uc8fc \ubd81\uad6c \uc720\ub9bc\ub85c 175 \uc0bc\uc775\uc544\ud30c\ud2b8", "phone":"0507-1392-2250", "fare":"30\ubd84-2000\uc6d0, 1\uc2dc\uac04-4000\uc6d0, 2\uc2dc\uac04-7000\uc6d0", "lat":126.862182, "lon":35.177801},
 {"id":61, "store_name":"\uc810\ud551\uc874", "address":"\uad11\uc8fc \ubd81\uad6c \uc784\ubc29\uc6b8\ub300\ub85c1042\ubc88\uae38 49 303\ud638", "phone":"010-9264-3585", "fare":"", "lat":126.868512, "lon":35.209814},
 {"id":62, "store_name":"\ube14\ub7ed\ud380", "address":"\uad11\uc8fc \ubd81\uad6c \ucca8\ub2e8\uc5f0\uc2e0\ub85c 187 \uc0c1\uac00\ub3d9", "phone":"0507-1316-2106", "fare":"", "lat":126.860796, "lon":35.212644},
 {"id":63, "store_name":"\ube14\ub7ed\ubaa8\uc544", "address":"\uad11\uc8fc \ubd81\uad6c \uc591\uc0b0\ud0dd\uc9c0\uc18c\ub85c 13 1\uce35", "phone":"0507-1313-3743", "fare":"1\uc2dc\uac04-5000\uc6d0, 10\uc2dc\uac04-45000\uc6d0", "lat":126.882344, "lon":35.213503},
 {"id":64, "store_name":"\ube14\ub7ed\uc2a4\ucfe8 \ucca8\ub2e82\uc9c0\uad6c\uc810", "address":"\uad11\uc8fc \ubd81\uad6c \ucca8\ub2e8\uc5f0\uc2e0\ub85c 166 \uad11\uc8fc\ucca8\ub2e82\uc9c0\uad6c\uc0ac\ub791\uc73c\ub85c\ubd80\uc601", "phone":"062-574-0085", "fare":"", "lat":126.864926, "lon":35.212574},
 {"id":65, "store_name":"\ube14\ub7ed\uc6d4\ub4dc", "address":"\uad11\uc8fc \ubd81\uad6c \uc11c\ud558\ub85c 389", "phone":"062-267-4555", "fare":"", "lat":126.922683, "lon":35.185376},
 {"id":66, "store_name":"\ube14\ub85d\ud53c\uc544", "address":"\uad11\uc8fc \ubd81\uad6c \ub9e4\uace1\ub85c 55", "phone":"062-575-5420", "fare":"", "lat":126.89365, "lon":35.189693},
 {"id":67, "store_name":"\uc5d0\ub4c0\ube14\ub7ed \uc591\uc0b0\uc800", "address":"\uad11\uc8fc \ubd81\uad6c \uc784\ubc29\uc6b8\ub300\ub85c1042\ubc88\uae38 14-10", "phone":"010-9574-5783", "fare":"\uc608\uc57d\uc81c", "lat":126.870146, "lon":35.211605},
 {"id":68, "store_name":"\uc5d4\uc824\ud321\ud321", "address":"\uad11\uc8fc \ubd81\uad6c \ubd81\ubb38\ub300\ub85c242\ubc88\uae38 3", "phone":"062-413-2005", "fare":"30\ubd84-2000\uc6d0, 1\uc2dc\uac04-3000\uc6d0, 2\uc2dc\uac04-5000\uc6d0", "lat":126.865835, "lon":35.187525},
 {"id":69, "store_name":"\ube14\ub7ed\uc2a4\ucfe8 \uc624\uce58\uc810", "address":"\uad11\uc8fc \ubd81\uad6c \uc6b0\uce58\ub85c275\ubc88\uae38 51", "phone":"062-266-4843", "fare":"", "lat":126.902583, "lon":35.189197},
 {"id":70, "store_name":"\ub85c\ubd07\ud648\uc2a4\ucfe8", "address":"\uad11\uc8fc \ubd81\uad6c \ubd80\ub0a8\uae3826\ubc88\uae38 36", "phone":"062-265-9799", "fare":"", "lat":126.927239, "lon":35.187066},
 {"id":71, "store_name":"\ube14\ub7ed\uc778 \uc591\uc0b0\uc810", "address":"\uad11\uc8fc \ubd81\uad6c \uc591\uc0b0\ud0dd\uc9c0\ub85c33\ubc88\uae38 19", "phone":"062-261-4690", "fare":"", "lat":126.877312, "lon":35.209607},
 {"id":72, "store_name":"\ube14\ub7ed\uc2a4\ucfe8 \ubb38\ud765\uc810", "address":"\uad11\uc8fc \ubd81\uad6c \ubb38\uc0b0\ub85c 20", "phone":"", "fare":"", "lat":126.922476, "lon":35.182769},
 {"id":73, "store_name":"\ud50c\ub808\uc774\ud0c0\uc784 \ub3d9\uad11\uc8fc\uc810", "address":"\uad11\uc8fc \ubd81\uad6c \ub3d9\ubb38\ub300\ub85c 200 \uc0bc\uc131\ud648\ud50c\ub7ec\uc2a4", "phone":"062-250-8086", "fare":"", "lat":126.930468, "lon":35.179487},
 {"id":74, "store_name":"\ucf54\ucf54\ubabd\ud0a4\uc988\ub79c\ub4dc NC\ubc31\ud654\uc810 \uad11\uc8fc\uc5ed\uc810", "address":"\uad11\uc8fc \ubd81\uad6c \uacbd\uc5f4\ub85c 249 NC\ubc31\ud654\uc810\uad11\uc8fc\uc810 10F", "phone":"0507-1391-7760", "fare":"\uc544\ub3d9\uc774\uc6a9\uad8c-13000\uc6d0(\ub124\uc774\ubc84\uc608\uc57d\uc2dc \ud560\uc778)", "lat":126.907126, "lon":35.16153},
 {"id":75, "store_name":"\uc624\ub80c\uc9c0\ud0a4\uc988\ud30c\ud06c", "address":"\uad11\uc8fc \uad11\uc0b0\uad6c \ubb34\uc9c4\ub300\ub85c 272-8", "phone":"062-941-5907", "fare":"\ud30c\ud2f0\ub8f8-30000\uc6d0, \ub864\ub7ec\uc874-10000\uc6d0", "lat":126.809625, "lon":35.160025},
 {"id":76, "store_name":"\uc2dc\ud06c\ub9bf\uc96c\uc96c\ub610\ubd07\ud0a4\uc988\uce74\ud398 \ud558\ub0a8\ud53c\ud06c\ub2c9\ubab0\uc810", "address":"\uad11\uc8fc \uad11\uc0b0\uad6c \uc6a9\uc544\ub85c400\ubc88\uae38 30 2001\ud638 2002\ud638", "phone":"062-955-5151", "fare":"14000~16000\uc6d0, \ud68c\uc6d0\uad8c(5+1)-75000\uc6d0", "lat":126.806526, "lon":35.17832},
 {"id":77, "store_name":"\ud5e4\uc774\ud0a4\uc988", "address":"\uad11\uc8fc \uad11\uc0b0\uad6c \uc18c\ucd0c\ub85c 75 2\uce35 \ud5e4\uc774\ud0a4\uc988", "phone":"0507-1318-0782", "fare":"1\uc2dc\uac04-5000\uc6d0, 2\uc2dc\uac04-9000\uc6d0, 3\uc2dc\uac04-12000\uc6d0", "lat":126.792711, "lon":35.151124},
 {"id":78, "store_name":"\ud50c\ub808\uc774\uc6d0", "address":"\uad11\uc8fc \uad11\uc0b0\uad6c \ucca8\ub2e8\uac15\ubcc0\ub85c87\ubc88\uae38 5 \uc57c\uc2a4\ud14d\ud0c0\uc6cc 6,7\uce35", "phone":"062-974-3369", "fare":"1\uc2dc\uac04-6000\uc6d0, 2\uc2dc\uac04 10800\uc6d0, 3\uc2dc\uac04 15600\uc6d0", "lat":126.85204, "lon":35.214346},
 {"id":79, "store_name":"\ubaa8\ub12c\ub85c\ud0a4\uc988\uce74\ud398", "address":"\uad11\uc8fc \uad11\uc0b0\uad6c \uc784\ubc29\uc6b8\ub300\ub85c 325 \uc815\uc778\ube4c\ub5295\uce35", "phone":"0507-1427-7727", "fare":"2\uc2dc\uac04-10000\uc6d0", "lat":126.822914, "lon":35.189143},
 {"id":80, "store_name":"\uba54\uac00\uc810\ud504\ud0a4\uc988\uce74\ud398", "address":"\uad11\uc8fc \uad11\uc0b0\uad6c \ud48d\uc601\ucca0\uae38\ub85c 20-5 \ub9c8\ucf13\uc62c\ub9bc3\uce35", "phone":"0507-1436-8887", "fare":"1\uc2dc\uac04-7000\uc6d0, 2\uc2dc\uac04-11000\uc6d0", "lat":126.813308, "lon":35.163351},
 {"id":81, "store_name":"\ub3d9\uae00\ub3d9\uae00\ud0a4\uc988\uce74\ud398", "address":"\uad11\uc8fc \uad11\uc0b0\uad6c \uc6d4\uacc4\ub85c 223-7 \ubbf8\ub974\ucc44\ud504\ub77c\uc7905\uce35", "phone":"0507-1381-6868", "fare":"1\uc2dc\uac04-6000\uc6d0, 2\uc2dc\uac04-10000\uc6d0, \ubcf4\ud638\uc790-3000\uc6d0", "lat":126.849638, "lon":35.214161},
 {"id":82, "store_name":"\uc5d8\ub9ac\uc5d8\ub9ac \uc218\uc644\uc810", "address":"\uad11\uc8fc \uad11\uc0b0\uad6c \ud48d\uc601\ub85c200\ubc88\uae38 45 2\uce35 \uc5d8\ub9ac\uc5d8\ub9ac", "phone":"062-954-5368", "fare":"\uc544\uae30\uc218\uc601(\ubcf4\ud638\uc7901\uc778\ud3ec\ud568)-26000\uc6d0", "lat":126.816557, "lon":35.189856},
 {"id":83, "store_name":"\uc2e0\ud65424\uc2dc \ud0a4\uc988\uce74\ud398", "address":"\uad11\uc8fc \uad11\uc0b0\uad6c \uc655\ubc84\ub4e4\ub85c 33", "phone":"0507-1411-6479", "fare":"", "lat":126.813984, "lon":35.203712},
 {"id":84, "store_name":"\uc77c\ub974\ub4dc\uc559\ud321\ubca0\uc774\ube44\uce74\ud398", "address":"\uad11\uc8fc \uad11\uc0b0\uad6c \uc7a5\uc2e0\ub85c 133 \uc0bc\uad11\ube4c\ub529 6\uce35 603\ud638", "phone":"062-961-2400", "fare":"1\uc2dc\uac04-6000\uc6d0, 2\uc2dc\uac04-10000\uc6d0, \uc5b4\ub978-4000\uc6d0", "lat":126.824797, "lon":35.191045},
 {"id":85, "store_name":"\uc544\uc774\ud0a4\uc988\uce74\ud398 \ucca8\ub2e8\uc810", "address":"\uad11\uc8fc \uad11\uc0b0\uad6c \uc784\ubc29\uc6b8\ub300\ub85c826\ubc88\uae38 29-31", "phone":"062-973-7142", "fare":"12\uac1c\uc6d4 \uc774\ud558-\ubb34\ub8cc, 2~10\uc138-6000\uc6d0, \uc5b4\ub978-2000\uc6d0", "lat":126.85066, "lon":35.216415},
 {"id":86, "store_name":"\ubca0\ubca0\uc5d4\uc808\ubca0\uc774\ube44\uce74\ud398", "address":"\uad11\uc8fc \uad11\uc0b0\uad6c \uc7a5\uc2e0\ub85c50\ubc88\uae38 9-16 \uc13c\ud130\ube4c\ub5294\uce35", "phone":"062-400-4114", "fare":"\ucee4\ud53c-4000\uc6d0, \ub3c8\uae4c\uc2a4-8900\uc6d0", "lat":126.816586, "lon":35.190172},
 {"id":87, "store_name":"\uc6d4\ub4dc\ud0b9 \uc218\uc644\uc810", "address":"\uad11\uc8fc \uad11\uc0b0\uad6c \uc7a5\uc2e0\ub85c 76", "phone":"0507-1333-4002", "fare":"1\uc2dc\uac04-6000\uc6d0, 2\uc2dc\uac04-10000\uc6d0, \uc5b4\ub978-4000\uc6d0", "lat":126.818338, "lon":35.190487},
 {"id":88, "store_name":"\ucc54\ud53c\uc5b8 \ud648\ud50c\ub7ec\uc2a4 \uad11\uc8fc \ud558\ub0a8\uc810", "address":"\uad11\uc8fc \uad11\uc0b0\uad6c \uc6a9\uc544\ub85c 390 \ud648\ud50c\ub7ec\uc2a4 \uad11\uc8fc \ud558\ub0a8\uc810 2\uce35", "phone":"062-952-0975", "fare":"2\uc2dc\uac04-15000\uc6d0", "lat":126.805378, "lon":35.177975},
 {"id":89, "store_name":"\uc288\ud37c\ubabd\ud14c\ub9c8\ud30c\ud06c", "address":"\uad11\uc8fc \uad11\uc0b0\uad6c \uc7a5\uc2e0\ub85c 85 \uc218\uc601\ube4c\ub529 10\uce35", "phone":"0507-1303-9110", "fare":"2\uc2dc\uac04-12000\uc6d0, \ubc18\uc77c\uad8c-15000\uc6d0, \ub300\uc7785000\uc6d0", "lat":126.819611, "lon":35.19131},
 {"id":90, "store_name":"\ud0a4\ud0a4\uacf5\ubc29 \ub86f\ud14c\ub9c8\ud2b8 \uc218\uc644\uc810", "address":"\uad11\uc8fc \uad11\uc0b0\uad6c \uc7a5\uc2e0\ub85c 98 \ub86f\ub370\ub9c8\ud2b8 4\uce35", "phone":"0507-1346-2881", "fare":"1\ud68c\uc774\uc6a9(1\uc2dc\uac04 30\ubd84)-12000\uc6d0", "lat":126.820323, "lon":35.189145},
 {"id":91, "store_name":"\ube14\ub7ed\uc2a4\ucfe8 \uc218\uc644\uc2e0\uc644\uc810", "address":"\uad11\uc8fc \uad11\uc0b0\uad6c \ud48d\uc601\ub85c329\ubc88\uae38 19 \ud638\ubc18\ubca0\ub974\ub514\uc6c02\ucc28 \uc544\ud30c\ud2b8 \uc0c1\uac00 2\uce35", "phone":"062-951-8666", "fare":"1\uc2dc\uac04-6000\uc6d0, 10\uc2dc\uac04-55000\uc6d0", "lat":126.813495, "lon":35.199588},
 {"id":92, "store_name":"\ud2b8\ub7a8\ud3f4\ub9b0\ud30c\ud06c \uad11\uc8fc\uc2e0\ucc3d\uc810", "address":"\uad11\uc8fc \uad11\uc0b0\uad6c \uc7a5\uc2e0\ub85c 261 \ub4dc\ub9bc\ud504\ub77c\uc790", "phone":"062-952-1156", "fare":"1\uc2dc\uac04-3000\uc6d0", "lat":126.838743, "lon":35.190955},
 {"id":93, "store_name":"\ub2e5\ud130\ubc38\ub7f0\uc2a4 \ub86f\ub370\uc544\uc6b8\ub81b \uc218\uc644\uc810", "address":"\uad11\uc8fc \uad11\uc0b0\uad6c \uc7a5\uc2e0\ub85c 98 \ub86f\ub370\uc544\uc6b8\ub81b 4\uce35 \ub2e5\ud130\ubc38\ub7f0\uc2a4", "phone":"062-616-2026", "fare":"2\uc2dc\uac04-13000~15000\uc6d0, 4\uc2dc\uac04-22000~26000\uc6d0", "lat":126.820323, "lon":35.189145},
 {"id":94, "store_name":"\uc810\ud504\ub178\ub9ac \uc6b4\ub0a8\uc810", "address":"\uad11\uc8fc \uad11\uc0b0\uad6c \uc784\ubc29\uc6b8\ub300\ub85c 154-7 \uc218\ud638\ube4c\ub529", "phone":"062-417-5558", "fare":"30\ubd84-2000\uc6d0, \uc885\uc77c\uad8c-10000\uc6d0, \uc131\uc778-2000\uc6d0", "lat":126.818307, "lon":35.175172},
 {"id":95, "store_name":"\ube14\ub7ed\ud30c\ud2f0\ud50c\ub7ec\uc2a4 \uc2e0\ucc3d\uc810", "address":"\uad11\uc8fc \uad11\uc0b0\uad6c \uc2e0\ucc3d\ub85c35\ubc88\uae38 20", "phone":"0507-1417-1929", "fare":"1\uc2dc\uac04-5000\uc6d0, 10\uc2dc\uac04-45000\uc6d0, 20\uc2dc\uac04-80000\uc6d0", "lat":126.835866, "lon":35.18944},
 {"id":96, "store_name":"\uaf2c\uaf2c\ud321\ud321&\ube14\ub85d", "address":"\uad11\uc8fc \uad11\uc0b0\uad6c \uc0ac\uc554\ub85c340\ubc88\uae38 35", "phone":"0507-1311-4559", "fare":"1\uc2dc\uac04-4000\uc6d0, 2\uc2dc\uac04-7000\uc6d0", "lat":126.810829, "lon":35.175288},
 {"id":97, "store_name":"\ube14\ub7ed\uc2a4\ucfe8 \uc0b0\uc6d4\uc810", "address":"\uad11\uc8fc \uad11\uc0b0\uad6c \ucca8\ub2e8\uc911\uc559\ub85c68\ubc88\uae38 99 \ud638\ubc183-5\ucc28\ub9ac\uc820\uc2dc\ube4c", "phone":"062-973-5515", "fare":"", "lat":126.848535, "lon":35.211365},
 {"id":98, "store_name":"\ud50c\ub808\uc774\ub79c\ub4dc \ucca8\ub2e8\uc810", "address":"\uad11\uc8fc \uad11\uc0b0\uad6c \ucca8\ub2e8\uc911\uc559\ub85c 152", "phone":"062-973-6369", "fare":"", "lat":126.842356, "lon":35.218751},
 {"id":99, "store_name":"\ube14\ub7ed\ub178\ub9ac", "address":"\uad11\uc8fc \uad11\uc0b0\uad6c \ud48d\uc601\ub85c145\ubc88\uae38 80 2\uce35", "phone":"0507-1345-5171", "fare":"1\uc2dc\uac04-6000\uc6d0, \uc131\uc778-2000\uc6d0(\uc2ac\ub77c\uc784 \uccb4\ud5d8\ub8cc\ub294 \ubcc4\ub3c4)", "lat":126.80985, "lon":35.183706},
 {"id":100, "store_name":"\uc694\uc694\ud50c\ub808\uc774\ubc29", "address":"\uad11\uc8fc \uad11\uc0b0\uad6c \ubaa9\ub828\ub85c273\ubc88\uae38 99", "phone":"062-959-4525", "fare":"", "lat":126.824504, "lon":35.178586},
 {"id":101, "store_name":"\ube14\ub7ed\uc2a4\ucfe8 \uc6b4\ub0a8\uc810", "address":"\uad11\uc8fc \uad11\uc0b0\uad6c \uc784\ubc29\uc6b8\ub300\ub85c 154-24", "phone":"062-959-8279", "fare":"1\uc2dc\uac04-6000\uc6d0, 10\uc2dc\uac04-55000\uc6d0", "lat":126.819986, "lon":35.174467},
 {"id":102, "store_name":"\ud0b9\ucf69\uc810\ud504", "address":"\uad11\uc8fc \uad11\uc0b0\uad6c \uc0ac\uc554\ub85c340\ubc88\uae38 35", "phone":"062-962-2511", "fare":"1\uc2dc\uac04-3000\uc6d0, 2\uc2dc\uac04-5000\uc6d0, \uc131\uc778-2000\uc6d0", "lat":126.810829, "lon":35.175288},
 {"id":103, "store_name":"\ube14\ub7ed\uc2a4\ucfe8 \uc120\uc6b4\uc810", "address":"\uad11\uc8fc \uad11\uc0b0\uad6c \uc120\uc6b4\uc911\uc559\ub85c 52", "phone":"062-942-6767", "fare":"", "lat":126.777547, "lon":35.147952},
 {"id":104, "store_name":"\ub864\ub9ac\ud3f4\ub9ac \uad11\uc8fc\uc6b4\ub0a8\uc810", "address":"\uad11\uc8fc \uad11\uc0b0\uad6c \ubaa9\ub828\ub85c153\ubc88\uae38 124 \ub354\uc874\ube4c\ub529", "phone":"070-8227-2745", "fare":"30\ubd84-1500\uc6d0", "lat":126.815114, "lon":35.177349},
 {"id":105, "store_name":"\ube14\ub7ed\uc5c5\uc5d0\ub4c0", "address":"\uad11\uc8fc \uad11\uc0b0\uad6c \uc784\ubc29\uc6b8\ub300\ub85c 142-12", "phone":"062-959-6806", "fare":"", "lat":126.81982, "lon":35.173015},
 {"id":106, "store_name":"\ud50c\ub808\uc774\uc564\ucee4\ud53c", "address":"\uad11\uc8fc \uad11\uc0b0\uad6c \uc784\ubc29\uc6b8\ub300\ub85c 142-10", "phone":"062-952-3995", "fare":"30\ubd84-1500\uc6d0, 1\uc2dc\uac04-2000\uc6d0, 2\uc2dc\uac04-3000\uc6d0", "lat":126.81835, "lon":35.173712},
 {"id":107, "store_name":"\uc8fc\uacf5\ud50c\ub808\uc774\ubc29", "address":"\uad11\uc8fc \uad11\uc0b0\uad6c \uc6d4\uace1\uc0b0\uc815\ub85c 12 \ud558\ub0a8\uc8fc\uacf5A 102\ub3d9 \uc0c1\uac00 \uc9c0\ud558", "phone":"0507-1308-0006", "fare":"", "lat":126.802588, "lon":35.166094},
 {"id":108, "store_name":"\ub9b4\ub9ac\ud38f \uad11\uc8fc\uc218\uc644\uc810", "address":"\uad11\uc8fc \uad11\uc0b0\uad6c \uc784\ubc29\uc6b8\ub300\ub85c 552 \ubcf8\uc2dc\ud2f0 1\ub3d9 1\uce35", "phone":"0507-1326-0119", "fare":"\uba54\ub274\ubcc4\ub85c \uac00\uaca9 \uc0c1\uc774", "lat":126.823824, "lon":35.207522},
 {"id":109, "store_name":"\ud50c\ub808\uc774\ubc29 \uc6d4\uace1\uc810", "address":"\uad11\uc8fc \uad11\uc0b0\uad6c \uc0ac\uc554\ub85c340\ubc88\uae38 39", "phone":"", "fare":"", "lat":126.811005, "lon":35.175308},
 {"id":110, "store_name":"\ud50c\ub808\uc774\ubc29 \uc2e0\uac00\uc810", "address":"\uad11\uc8fc \uad11\uc0b0\uad6c \uc218\ub4f1\ub85c 261-5", "phone":"", "fare":"", "lat":126.837447, "lon":35.185597},
 {"id":111, "store_name":"\ud0a4\uc988\uce90\uc2ac", "address":"\uc804\ub0a8 \ub098\uc8fc\uc2dc \uadf8\ub9b0\ub85c 208", "phone":"061-332-3662", "fare":"1\uc2dc\uac04-4000\uc6d0, 3\uc2dc\uac04-10000\uc6d0, \ubcf4\ud638\uc790-\uba54\ub274 \uac00\uaca9 \uc0c1\uc774", "lat":126.789048, "lon":35.009237},
 {"id":112, "store_name":"\uc810\ud551\uace0\ud50c\ub7ec\uc2a4", "address":"\uc804\ub0a8 \ub098\uc8fc\uc2dc \uc0c1\uc57c4\uae38 16-16 2\uce35", "phone":"061-336-6924", "fare":"2\uc2dc\uac04\uc774\uc6a9\uc6d0-12000\uc6d0, \ubcf4\ud638\uc790-3000\uc6d0", "lat":126.793039, "lon":35.023888},
 {"id":113, "store_name":"\ud5ec\ub85c\ubc00\uac00\ub8e8 \ub098\uc8fc\uc810", "address":"\uc804\ub0a8 \ub098\uc8fc\uc2dc \uc6d4\uc8155\uae38 81 5\uce35", "phone":"0507-1331-5170", "fare":"\uc544\uc774\uccb4\ud5d8\ube44-17000\uc6d0, \ubcf4\ud638\uc790-6000\uc6d0", "lat":126.792017, "lon":35.00923},
 {"id":114, "store_name":"\ud3ec\uc2dc\ubca0\ubca0 \ub098\uc8fc\ud601\uc2e0\uc810", "address":"\uc804\ub0a8 \ub098\uc8fc\uc2dc \uc6b0\uc815\ub85c 56 \ub9ac\uce58\ud0c0\uc6cc A\ub3d9 404\ud638", "phone":"0507-1342-5632", "fare":"\uba54\ub274 \uac00\uaca9 \ubcc4\ub85c \uc0c1\uc774", "lat":126.785963, "lon":35.023727},
 {"id":115, "store_name":"\uc0cc\ub4dc\ucfe1", "address":"\uc804\ub0a8 \ub098\uc8fc\uc2dc \ubb38\ud654\ub85c 204 \ud558\ub098\ub85c\ud504\ub77c\uc790 403\ud638", "phone":"061-333-2959", "fare":"\uc544\uc774\uccb4\ud5d8\ube44-15000\uc6d0, \ubcf4\ud638\uc790-5000\uc6d0", "lat":126.784445, "lon":35.016744},
 {"id":116, "store_name":"\uc6d4\ub4dc\ud0b9", "address":"\uc804\ub0a8 \ub098\uc8fc\uc2dc \uc911\uc57c2\uae38 6", "phone":"0507-1429-7002", "fare":"1\uc2dc\uac04-4000\uc6d0, 2\uc2dc\uac04-7000\uc6d0, 3\uc2dc\uac04-10000\uc6d0", "lat":126.784715, "lon":35.015512},
 {"id":117, "store_name":"\ud50c\ub808\uc774\ud0c0\uc784 \ub098\uc8fc\uc810", "address":"\uc804\ub0a8 \ub098\uc8fc\uc2dc \ub0b4\ub3d9\uae38 15", "phone":"061-334-1030", "fare":"", "lat":126.712909, "lon":35.013239},
 {"id":118, "store_name":"\uc810\ud504\ub178\ub9ac\ud0a4\uc988\uce74\ud398 \ud654\uc21c\uc810", "address":"\uc804\ub0a8 \ud654\uc21c\uad70 \ud654\uc21c\uc74d \ub9cc\uc5f0\ub85c 72-1 \uac74\uc601\ube4c\ub529", "phone":"061-372-5501", "fare":"\uc785\uc7a5\ub8cc(30\ubd84)-1500\uc6d0", "lat":126.990688, "lon":35.061929},
 {"id":119, "store_name":"\uc810\ud504\ub178\ub9ac\ud0a4\uc988\uce74\ud398 \uc601\uad11\uc810", "address":"\uc804\ub0a8 \uc601\uad11\uad70 \uc601\uad11\uc74d \ucc9c\ub144\ub85c 1489 203\ud638", "phone":"0507-1367-0345", "fare":"30\ubd84-2000\uc6d0, 1\uc2dc\uac04 35000\uc6d0", "lat":126.504406, "lon":35.275346},
 {"id":120, "store_name":"\ube14\ub7ed\uc2a4\ucfe8 \uc601\uad11\uc810", "address":"\uc804\ub0a8 \uc601\uad11\uad70 \uc601\uad11\uc74d \ubb3c\ubb34\ub85c 77-1", "phone":"061-351-7575", "fare":"1\uc2dc\uac04-5000\uc6d0, 10\uc2dc\uac04-45000\uc6d0", "lat":126.508733, "lon":35.277347},
 {"id":121, "store_name":"\ud0a4\ud06c\ub294\ub098\ubb34", "address":"\uc804\ub0a8 \uc601\uad11\uad70 \uc601\uad11\uc74d \ubb3c\ubb34\ub85c 152", "phone":"061-352-2235", "fare":"", "lat":126.516602, "lon":35.276164},
 {"id":122, "store_name":"\ube14\ub7ed\ucf69", "address":"\uc804\ub0a8 \uc7a5\uc131\uad70 \uc0bc\uacc4\uba74 \ub2a5\uc131\ub85c 548", "phone":"061-392-7959", "fare":"", "lat":126.671877, "lon":35.258598},
 {"id":123, "store_name":"\ud558\uc774\uc810\ud504", "address":"\uc804\ub0a8 \uc7a5\uc131\uad70 \uc0bc\uacc4\uba74 \ub2a5\uc131\ub85c 548 \uc0c1\ubb34\uc2a4\ud3ec\uce20\uc13c\ud130 2\uce35", "phone":"0507-1392-2004", "fare":"", "lat":126.671877, "lon":35.258598},
 {"id":124, "store_name":"\uc11c\uc5f0\ud50c\ub808\uc774\ubc45\ud06c", "address":"\uc804\ub0a8 \uc7a5\uc131\uad70 \uc7a5\uc131\uc74d \ub300\ucc3d1\uae38 4", "phone":"061-393-3123", "fare":"", "lat":126.781189, "lon":35.295758}]